Тип предложения,Комнаты,Адрес,Серия,Площадь,Отопление,Состояние,Возможность рассрочки,Возможность ипотеки,Возможность обмена,Интернет,Газ,Балкон,Мебель,Пол,Высота потолков,Телефон,Санузел,Входная дверь,Парковка,Ценна доллар,Lat,Lon,Город,Номер этажа,Общий этаж,Домофон,Видеонаблюдение,Охрана,Решетки на окнах,Кодовый замок,Сигнализация,Видеодомофон,Консьерж,Договор купли-продажи,Договор дарения,Технический паспорт,Акт ввода в эксплуатацию,Красная книга,зеленая книга,Материал,Год
собственник,1,"Бишкек, Магистраль, Куттубаева/Южная Магистраль",элитка,40.0,1.0,евроремонт,,,обмен не предлагать,оптика,1.0,1.0,пустая,,3.0,0.0,совмещенный,металлическая,паркинг,62000,42.8163,74.6224,Бишкек,3,10,0,0,0,0,0,0,0,0,0,0,0,0,0,0,монолитный,2022
собственник,3,"Бишкек, Ак Кеме",элитка,110.9,1.0,евроремонт,,1.0,рассмотрю варианты,проводной,1.0,1.0,частично меблирована,ламинат,,0.0,раздельный,бронированная,паркинг,180000,42.8396,74.5824,Бишкек,4,7,0,0,0,0,0,0,0,0,1,0,1,0,0,0,кирпичный,2014
собственник,2,"Бишкек, Ак Эмир рынок, Московская/Шопокова, 38",элитка,78.93,1.0,под самоотделку (псо),0.0,0.0,,,,1.0,пустая,,3.2,0.0,2 с/у и более,,,98000,42.8679,74.6145,Бишкек,13,14,0,1,1,0,0,0,0,0,0,0,0,0,0,0,монолитный,2023
собственник,1,"Бишкек, Ак-Орго ж/м, Ахунбаева/Ашар",элитка,39.0,1.0,под самоотделку (псо),1.0,,,проводной,1.0,,пустая,,2.7,1.0,раздельный,бронированная,рядом охраняемая стоянка,39000,42.845,74.5207,Бишкек,5,9,0,0,0,0,0,0,0,0,0,0,0,0,0,0,кирпичный,2024
собственник,3,"Бишкек, КГУСТА, Малдыбаева 30Б/Ахунбаева",индивид. планировка,68.0,1.0,хорошее,,,,проводной,1.0,1.0,полностью меблирована,паркет,,1.0,раздельный,бронированная,,87000,42.8421,74.6011,Бишкек,5,5,1,0,0,1,0,0,0,0,1,0,0,0,0,0,кирпичный,1990
собственник,3,"Бишкек, 7 м-н 1/жукеева пудовкина",104 серия,58.0,1.0,среднее,,,,,1.0,1.0,,,3.0,0.0,совмещенный,,,74000,42.8324,74.6157,Бишкек,2,4,0,0,0,0,0,0,0,0,0,0,1,0,0,0,панельный,1969
собственник,3,"Бишкек, 7 м-н, Юнусалиева 173/3",элитка,84.0,1.0,хорошее,0.0,0.0,обмен не предлагать,,1.0,1.0,полностью меблирована,ламинат,3.0,0.0,раздельный,бронированная,паркинг,116000,42.8285,74.6205,Бишкек,1,10,1,1,0,0,0,0,0,0,1,0,1,1,1,0,кирпичный,2015
собственник,2,"Бишкек, Магистраль, Сухэ-Батора/Токомбаева",элитка,75.0,1.0,евроремонт,,1.0,обмен не предлагать,adsl,1.0,,полностью меблирована,,3.0,1.0,раздельный,бронированная,,115000,42.8188,74.6162,Бишкек,10,10,1,1,1,0,0,0,1,0,1,0,1,0,0,0,монолитный,2021
собственник,1,"Бишкек, Верхний Джал м-н, Тыналиева 15/Курчатова",106 серия,45.0,1.0,хорошее,,1.0,,проводной,1.0,1.0,пустая,линолеум,2.9,0.0,совмещенный,бронированная,рядом охраняемая стоянка,53000,42.8348,74.5642,Бишкек,7,9,1,1,0,0,1,0,0,0,0,0,1,0,0,0,панельный,1999
собственник,4,"Бишкек, Сквер Тоголок Молдо, Чуйкова 134/Исанова",элитка,145.0,1.0,евроремонт,,,обмен на авто,проводной,1.0,1.0,полностью меблирована,ламинат,3.0,,2 с/у и более,металлическая,паркинг,290000,42.865,74.5924,Бишкек,2,10,1,1,0,1,0,0,1,0,0,0,0,0,0,0,монолитный,2016
собственник,1,"Бишкек, Молодая Гвардия, Абдумомунова 309/Фрунзе",элитка,52.0,1.0,евроремонт,,,рассмотрю варианты,,,,,,3.0,,,,,75000,42.8815,74.5775,Бишкек,8,12,0,0,0,0,0,0,0,0,0,0,1,0,0,0,монолитный,2021
собственник,3,"Бишкек, Магистраль, Куттубаева/Южная Магистраль",элитка,9.0,1.0,евроремонт,,,,проводной,1.0,1.0,частично меблирована,ламинат,3.0,,раздельный,бронированная,,118000,42.8161,74.6228,Бишкек,8,12,0,1,1,1,0,0,0,0,0,0,0,0,0,0,кирпичный,2022
собственник,4,"Бишкек, Магистраль, Масалиева/Бакаева",элитка,158.0,1.0,под самоотделку (псо),,,обмен не предлагать,adsl,1.0,1.0,пустая,пробковое,3.0,1.0,раздельный,бронированная,паркинг,138500,42.8284,74.5771,Бишкек,8,12,1,1,1,0,0,0,0,0,0,0,0,0,1,0,кирпичный,2024
агент,2,"Бишкек, 12 м-н, 12 мкрн 57/1",элитка,47.0,1.0,евроремонт,,,,adsl,1.0,0.0,полностью меблирована,ламинат,3.0,1.0,совмещенный,бронированная,рядом охраняемая стоянка,75000,42.8121,74.6374,Бишкек,10,13,1,1,1,0,0,0,0,0,0,0,0,0,0,0,монолитный,2021
собственник,1,"Бишкек, VEFA, Кулатова/Элебаева",элитка,45.0,1.0,евроремонт,,,,,,,,,3.0,,,,,68500,42.8592,74.6134,Бишкек,7,15,0,0,0,0,0,0,0,0,0,0,0,0,0,0,монолитный,2022
собственник,2,"Бишкек, Джальская больница, Тыналиева 2/21",индивид. планировка,75.0,1.0,под самоотделку (псо),,,,,1.0,1.0,,,3.0,,раздельный,бронированная,паркинг,90000,42.8455,74.5688,Бишкек,6,14,1,1,1,0,1,0,0,0,0,0,1,0,1,0,кирпичный,2019
собственник,3,"Бишкек, Старый аэропорт, Бакаева 132а/Ахумбаева Чапаева",элитка,115.0,1.0,евроремонт,0.0,1.0,обмен не предлагать,проводной,1.0,1.0,частично меблирована,паркет,2.85,1.0,2 с/у и более,бронированная,гараж,157000,42.8414,74.5767,Бишкек,4,6,1,1,0,0,1,0,1,0,1,1,1,1,1,0,монолитный,2014
агент,1,"Бишкек, Космос, Панфилова 13",хрущевка,29.0,1.0,среднее,,,,проводной,1.0,0.0,,дерево,2.65,0.0,совмещенный,деревянная,паркинг,38500,42.8478,74.5996,Бишкек,1,2,0,0,0,0,0,0,0,0,0,0,0,0,0,0,кирпичный,1960
агент,3,"Бишкек, Московская - Уметалиева/бокомбаева",индивид. планировка,75.0,1.0,евроремонт,,,,,1.0,1.0,пустая,,2.75,,раздельный,металлическая,паркинг,80900,42.8701,74.5823,Бишкек,4,5,0,0,0,0,0,0,0,0,1,0,1,0,1,0,кирпичный,1981
собственник,2,"Бишкек, Душанбинка, Токтоналиева 8/2/Джаманбаева",элитка,63.0,,евроремонт,,,,adsl,,,пустая,,,1.0,совмещенный,,,73000,42.849,74.5925,Бишкек,6,14,0,0,1,0,0,0,0,0,0,0,0,0,0,0,кирпичный,2021
собственник,3,"Бишкек, Московская - Уметалиева, Московская 191",элитка,113.0,,евроремонт,,,рассмотрю варианты,adsl,1.0,1.0,частично меблирована,ламинат,3.0,1.0,раздельный,бронированная,рядом охраняемая стоянка,141250,42.8713,74.5821,Бишкек,5,12,1,1,1,0,0,0,0,0,1,0,1,1,1,0,кирпичный,
собственник,2,"Бишкек, Махатма Ганди - БЧК",индивид. планировка,37.0,,евроремонт,,,,,,,,,2.8,,совмещенный,бронированная,,42000,42.8927,74.5766,Бишкек,6,6,0,0,0,0,0,0,0,0,1,0,1,0,1,0,монолитный,
агент,2,"Бишкек, Академия Наук, Турусбекова",элитка,52.1,1.0,евроремонт,,,,проводной,1.0,1.0,полностью меблирована,паркет,3.0,1.0,раздельный,металлическая,паркинг,134000,42.8778,74.5827,Бишкек,7,9,1,1,1,1,0,1,0,0,1,0,1,0,0,0,кирпичный,2014
агент,1,"Бишкек, Парк Панфилова/Спартак, Логвиненко",элитка,64.0,1.0,евроремонт,,,рассмотрю варианты,проводной,1.0,1.0,полностью меблирована,ламинат,3.0,0.0,совмещенный,металлическая,паркинг,75000,42.8835,74.5987,Бишкек,10,12,1,1,1,1,0,1,0,0,1,0,1,0,0,0,кирпичный,2012
агент,3,"Бишкек, Джал 15 м-н, Ахунбаева/Тыналиева",элитка,74.0,1.0,евроремонт,,,,проводной,1.0,,,,2.8,1.0,совмещенный,,,90000,42.8449,74.5673,Бишкек,18,18,1,1,1,0,0,0,0,0,1,0,1,0,0,0,монолитный,2014
агент,2,"Бишкек, КНУ, Байтик Баатыра",элитка,120.0,1.0,евроремонт,,,,проводной,1.0,0.0,полностью меблирована,ламинат,3.0,1.0,раздельный,металлическая,паркинг,150000,42.884,74.581,Бишкек,2,9,1,1,1,0,0,0,0,0,1,0,1,0,0,0,кирпичный,2015
агент,3,"Бишкек, Джал-23 м-н (Нижний Джал)",106 серия,68.0,1.0,хорошее,,,,проводной,1.0,1.0,частично меблирована,линолеум,2.8,0.0,раздельный,металлическая,паркинг,74500,42.843,74.5639,Бишкек,9,9,1,0,0,1,0,0,0,0,1,0,1,0,0,0,панельный,2009
агент,3,"Бишкек, Советская - Скрябина, Скрябина/Советская",элитка,136.0,1.0,евроремонт,,,,проводной,1.0,1.0,полностью меблирована,паркет,3.0,1.0,раздельный,бронированная,рядом охраняемая стоянка,176000,42.8497,74.6099,Бишкек,4,10,1,1,1,1,0,0,1,0,1,0,1,0,0,0,кирпичный,2020
агент,2,"Бишкек, Кара-Жыгач ж/м, Кемин/Субан-Ата",элитка,49.0,1.0,евроремонт,0.0,0.0,,проводной,1.0,1.0,пустая,ламинат,2.8,1.0,совмещенный,металлическая,рядом охраняемая стоянка,52000,42.8596,74.6634,Бишкек,1,5,1,0,0,0,0,0,0,0,0,0,0,0,1,0,панельный,2022
агент,3,"Бишкек, Рабочий Городок,  ул.Льва Толстого/Садырбаева",элитка,87.0,1.0,под самоотделку (псо),,,,проводной,,,,,2.8,0.0,,,,74000,42.8653,74.569,Бишкек,6,15,0,0,0,0,0,0,0,0,0,0,0,0,0,0,монолитный,2021
агент,1,"Бишкек Ленинский район,  ул. Барпы Алыкулова/Южная Магистраль",элитка,45.97,,под самоотделку (псо),,,,проводной,1.0,,,,,0.0,совмещенный,,,46000,42.8236,74.5127,Бишкек,10,14,0,0,1,0,0,0,0,0,0,0,0,0,0,0,монолитный,2026
агент,3,"Бишкек Ленинский район,  ул. Барпы Алыкулова/Южная Магистраль",элитка,97.55,,под самоотделку (псо),0.0,1.0,обмен на авто,проводной,1.0,,,,,0.0,раздельный,,,96000,42.8236,74.5127,Бишкек,4,14,0,0,0,0,0,0,0,0,0,0,0,0,0,0,монолитный,2026
агент,1,"Бишкек, Космос, Абая 93/1",элитка,54.51,1.0,под самоотделку (псо),,,,проводной,1.0,1.0,пустая,,3.0,0.0,раздельный,металлическая,паркинг,48500,42.8489,74.6,Бишкек,8,12,0,0,0,0,0,0,0,0,0,0,0,0,0,0,монолитный,2023
агент,3,"Бишкек, Баха, Султана Боронбая",элитка,87.02,1.0,под самоотделку (псо),1.0,1.0,рассмотрю варианты,проводной,1.0,1.0,пустая,,3.0,0.0,раздельный,металлическая,рядом охраняемая стоянка,77000,42.8453,74.5516,Бишкек,2,10,1,1,1,0,0,0,1,0,0,0,0,0,0,0,кирпичный,2024
агент,4,"Бишкек, Площадь Победы, Советская/ Жумабек",хрущевка,92.0,1.0,хорошее,,,,проводной,1.0,1.0,,ламинат,3.2,1.0,раздельный,деревянная,гараж,89000,42.8793,74.6146,Бишкек,3,3,0,0,0,0,0,0,0,0,0,0,0,0,0,0,кирпичный,1972
агент,1,"Бишкек, Магистраль, Сухэ Батора/Южная Магистраль",элитка,36.6,1.0,под самоотделку (псо),,,,проводной,1.0,0.0,пустая,,3.0,0.0,раздельный,нет,паркинг,37000,42.8217,74.6172,Бишкек,3,12,0,0,0,0,0,0,0,0,0,0,0,0,0,0,монолитный,2022
собственник,2,"Бишкек, Магистраль, бакаева 144/Масалиева",элитка,104.5,1.0,под самоотделку (псо),1.0,,,,,,,,2.8,,,,,114950,42.8285,74.577,Бишкек,3,12,0,0,0,0,0,0,0,0,0,0,0,0,0,0,монолитный,2024
собственник,1,"Бишкек, Магистраль, Бакаева 144/Магистраль",элитка,67.9,1.0,под самоотделку (псо),0.0,0.0,обмен на авто,проводной,1.0,0.0,пустая,ламинат,2.9,1.0,совмещенный,бронированная,рядом охраняемая стоянка,74690,42.8286,74.577,Бишкек,3,12,0,1,1,0,0,0,0,0,0,0,0,0,0,0,кирпичный,
собственник,1,"Бишкек, Магистраль, Бакаева 144/Магистраль",элитка,67.9,1.0,под самоотделку (псо),1.0,,обмен не предлагать,проводной,1.0,1.0,,,2.8,1.0,совмещенный,бронированная,рядом охраняемая стоянка,74690,42.8286,74.5772,Бишкек,7,12,1,1,1,0,0,0,0,0,0,0,0,0,0,0,монолитный,2024
собственник,1,"Бишкек, 10 м-н 17",105 серия,37.0,1.0,среднее,,,,,,,,,,,,,,44000,42.8329,74.6017,Бишкек,5,5,0,0,0,0,0,0,0,0,0,0,1,0,0,0,панельный,1970
собственник,3,"Бишкек, Военторг, Тоголок Молдо/Токтогула",элитка,128.0,1.0,под самоотделку (псо),1.0,,,,,,,,3.1,,,,,151040,42.8717,74.5938,Бишкек,12,14,0,0,0,0,0,0,0,0,0,0,0,0,1,0,монолитный,2022
собственник,3,"Бишкек, Магистраль, Сухэ-Батора/Токомбаева",элитка,125.0,1.0,под самоотделку (псо),,,,,,,,,3.0,,,,,130000,42.8195,74.6158,Бишкек,12,12,0,0,0,0,0,0,0,0,0,0,0,0,0,0,монолитный,2019
агент,2,"Бишкек, Джал-29 м-н, Магистраль/Тыналиева",элитка,77.0,1.0,под самоотделку (псо),,,обмен не предлагать,проводной,1.0,,пустая,,3.0,,раздельный,металлическая,,84000,42.8306,74.5657,Бишкек,8,12,0,1,0,0,0,0,0,0,0,0,0,0,0,0,кирпичный,2024
собственник,1,"Бишкек, Мадина,  ул. 7 апреля",элитка,52.0,1.0,под самоотделку (псо),0.0,0.0,с доплатой покупателя,проводной,1.0,1.0,,,3.0,,совмещенный,металлическая,паркинг,53800,42.8694,74.6377,Бишкек,3,16,0,1,0,0,0,0,0,0,0,0,0,0,1,0,монолитный,2022
собственник,1,"Бишкек, Горького - Алма-Атинская, 7-апреля (Алматинская)/Исакеева (ниже Горького)",индивид. планировка,42.0,1.0,под самоотделку (псо),0.0,0.0,обмен не предлагать,проводной,,1.0,пустая,,,,совмещенный,металлическая,паркинг,28980,42.8603,74.6291,Бишкек,7,12,1,1,0,0,0,0,0,0,0,0,0,0,1,0,кирпичный,2025
собственник,3,"Бишкек, Кок-Жар ж/м, Шабдан Баатыра/Шоокум",индивид. планировка,109.0,1.0,евроремонт,0.0,0.0,с доплатой покупателя,проводной,1.0,1.0,пустая,паркет,3.0,,раздельный,металлическая,рядом охраняемая стоянка,103000,42.8501,74.6361,Бишкек,11,12,1,1,0,0,0,0,0,0,0,0,0,0,1,0,кирпичный,2021
собственник,1,"Бишкек, 10 м-н, Малдыбаева 17/10-мкр",105 серия,35.0,1.0,среднее,0.0,0.0,обмен не предлагать,проводной,1.0,,,,,,совмещенный,,,44300,42.8329,74.6013,Бишкек,5,5,1,0,0,0,0,0,0,0,1,0,1,0,0,0,панельный,1990
собственник,2,"Бишкек, Золотой квадрат, Панфилова-Московская",элитка,74.0,1.0,под самоотделку (псо),0.0,0.0,с доплатой покупателя,,1.0,1.0,,,3.0,,раздельный,металлическая,паркинг,95000,42.8694,74.6003,Бишкек,8,10,0,0,0,0,0,0,0,0,0,0,0,0,0,0,монолитный,2024
агент,2,"Бишкек, Ошский рынок, Киевская/Бейшеналиева",сталинка,52.0,1.0,евроремонт,0.0,0.0,с доплатой покупателя,проводной,1.0,,,ламинат,,,раздельный,металлическая,,61500,42.8758,74.572,Бишкек,2,3,1,0,0,0,0,0,0,0,1,0,1,0,0,0,кирпичный,1960
агент,1,"Бишкек, Ден Сяопина - Фучика, Харьковская 35/Жибек Жолу",индивид. планировка,35.0,1.0,евроремонт,0.0,0.0,обмен не предлагать,проводной,1.0,,полностью меблирована,ламинат,,,совмещенный,металлическая,,43800,42.8873,74.5563,Бишкек,1,5,1,0,0,0,0,0,0,0,1,0,1,0,0,0,кирпичный,2021
агент,3,"Бишкек, Магистраль, Сухэ-Батора/Токомбаева",элитка,125.0,1.0,под самоотделку (псо),0.0,0.0,с доплатой покупателя,проводной,1.0,1.0,,,3.0,,2 с/у и более,металлическая,,133750,42.8195,74.6155,Бишкек,12,12,0,0,0,0,0,0,0,0,0,0,0,1,1,0,монолитный,2019
собственник,1,"Бишкек, Улан-2 м-н",105 серия,43.4,1.0,хорошее,,,,,1.0,,полностью меблирована,ламинат,2.7,,совмещенный,,,51500,42.8452,74.6338,Бишкек,9,9,0,0,0,0,0,0,0,0,0,0,0,0,0,0,панельный,2018
собственник,3,"Бишкек, Кара-Жыгач ж/м, Сары озон (Лев Толстой) 86/Достоевский",индивид. планировка,82.0,1.0,евроремонт,0.0,0.0,с доплатой покупателя,проводной,1.0,1.0,частично меблирована,паркет,,,раздельный,металлическая,паркинг,67500,42.8664,74.6525,Бишкек,3,4,1,1,0,0,0,0,0,0,1,0,1,0,0,0,кирпичный,
собственник,1,"Бишкек, Горького - Алма-Атинская, Алматинка/Горького",индивид. планировка,42.0,1.0,под самоотделку (псо),0.0,0.0,обмен не предлагать,,,,,,,,,,,29980,42.8603,74.629,Бишкек,7,12,0,0,0,0,0,0,0,0,0,0,0,0,0,0,кирпичный,2025
собственник,1,"Бишкек, Улан-2 м-н",105 серия,43.0,1.0,евроремонт,,1.0,,оптика,,0.0,полностью меблирована,ламинат,,,совмещенный,бронированная,паркинг,51000,42.8452,74.6338,Бишкек,9,9,0,0,0,0,0,0,0,0,1,0,0,0,0,0,панельный,2018
собственник,1,"Бишкек, Кок-Жар ж/м, Молдокулова 10/1/Ахунбаева",105 серия,44.6,1.0,евроремонт,0.0,,обмен не предлагать,оптика,0.0,1.0,полностью меблирована,ламинат,2.8,0.0,совмещенный,бронированная,паркинг,53000,42.8395,74.6442,Бишкек,8,9,1,1,0,0,1,0,0,0,1,0,1,1,1,0,панельный,2020
агент,4,"Бишкек, Магистраль, Токомбаева",элитка,172.0,,евроремонт,,,,,,,,,3.0,,,,,340000,42.8172,74.6238,Бишкек,12,13,0,0,0,0,0,0,0,0,0,0,0,0,0,0,монолитный,2021
собственник,1,"Бишкек, 4 м-н, 4 22",104 серия,32.0,1.0,евроремонт,,,,проводной,1.0,1.0,пустая,ламинат,2.6,0.0,совмещенный,бронированная,паркинг,54500,42.8387,74.629,Бишкек,3,4,0,0,0,0,0,0,0,0,0,0,0,0,0,0,панельный,1972
собственник,1,"Бишкек, Магистраль, Куттубаева/Южн. Магистраль",элитка,43.0,1.0,под самоотделку (псо),,,,проводной,1.0,1.0,пустая,,3.0,0.0,раздельный,металлическая,паркинг,36500,42.8113,74.6221,Бишкек,6,10,1,1,0,0,0,0,1,0,0,0,0,0,0,0,монолитный,2023
собственник,2,"Бишкек, Джал 15 м-н, Ахунбаева/Тыналиева",элитка,60.0,1.0,под самоотделку (псо),,,,,,,,,3.0,,,,,52000,42.8451,74.5654,Бишкек,12,14,0,0,0,0,0,0,0,0,0,0,0,0,0,0,монолитный,2023
собственник,1,"Бишкек, Магистраль,  ул. Куттубаева, 15",элитка,45.0,1.0,под самоотделку (псо),,,,проводной,1.0,1.0,пустая,,3.0,0.0,совмещенный,металлическая,паркинг,37000,42.813,74.6193,Бишкек,3,12,1,1,0,0,0,0,1,0,0,0,0,0,0,0,монолитный,2023
собственник,1,"Бишкек, Джал 15 м-н, Ахунбаева/Тыналиева",элитка,42.0,1.0,под самоотделку (псо),,,,проводной,1.0,1.0,пустая,,3.0,0.0,совмещенный,металлическая,паркинг,40500,42.8451,74.5654,Бишкек,9,14,1,1,0,0,0,0,0,0,0,0,0,0,1,0,монолитный,2023
собственник,1,"Бишкек, Джал 15 м-н, Ахунбаева/Тыналиева",элитка,42.0,1.0,под самоотделку (псо),,,,проводной,1.0,1.0,,,3.0,0.0,совмещенный,металлическая,паркинг,40500,42.8451,74.5654,Бишкек,7,14,1,1,0,0,0,0,1,0,0,0,0,0,1,0,монолитный,2023
собственник,2,"Бишкек, Матросова, Суванбердиева 110",элитка,68.0,1.0,под самоотделку (псо),,,,,,,,,3.0,,,,,66000,42.8485,74.6173,Бишкек,10,12,0,0,0,0,0,0,0,0,0,0,0,0,0,0,монолитный,2023
собственник,3,"Бишкек, Западный автовокзал, Динары Асановой 4",элитка,76.22,1.0,под самоотделку (псо),,,обмен не предлагать,,1.0,1.0,,,3.0,1.0,раздельный,,,63000,42.884,74.5633,Бишкек,3,9,0,0,0,0,0,0,0,0,1,0,1,0,1,0,монолитный,2023
собственник,1,"Бишкек, Магистраль, Сухэ Батора/Южная Магистраль",элитка,36.6,1.0,под самоотделку (псо),0.0,,,,1.0,1.0,,,3.2,,совмещенный,,паркинг,32940,42.8217,74.6172,Бишкек,4,13,0,0,0,0,0,0,0,0,1,0,1,0,0,0,монолитный,2025
собственник,4,"Бишкек, Магистраль, Токомбаева (Южная магистраль) 33/напротив гипермаркета ""Глобус""",элитка,125.0,,хорошее,,,,проводной,,,,ламинат,,,2 с/у и более,бронированная,паркинг,160000,42.8241,74.6127,Бишкек,3,12,0,0,0,0,0,0,0,0,0,0,0,0,0,0,кирпичный,2021
собственник,1,"Бишкек, Тунгуч м-н, микрорайон Тунгуч (второй дом от ул.Анкара)",105 серия,35.0,1.0,хорошее,,,,проводной,1.0,1.0,,,,,,,паркинг,46000,42.8543,74.6891,Бишкек,2,9,0,0,0,0,0,0,0,0,0,0,0,0,0,0,панельный,
собственник,1,"Бишкек, Кок-Жар ж/м, ЖК премиум класса ""Ботсад""",элитка,45.0,,под самоотделку (псо),,,,,,,,,,,,,,54000,42.8337,74.6398,Бишкек,4,14,0,0,0,0,0,0,0,0,0,0,0,0,0,0,кирпичный,
собственник,2,"Бишкек, Политех, Сухомлинова/пр.Ч.Айтматова (бывш.пр.Мира), в районе Политеха",индивид. планировка,45.0,1.0,хорошее,,,,проводной,1.0,,,,,,,бронированная,паркинг,62000,42.8463,74.585,Бишкек,1,4,0,0,0,0,0,0,0,0,0,0,0,0,0,0,кирпичный,
собственник,3,"Бишкек, Магистраль,  ул. Токомбаева/Куттубаева",элитка,113.0,1.0,не достроено,,,,adsl,1.0,1.0,пустая,дерево,3.0,0.0,раздельный,бронированная,паркинг,152550,42.8152,74.622,Бишкек,1,18,0,0,0,0,0,0,0,0,0,0,0,0,0,0,монолитный,2025
собственник,2,"Бишкек, КНУ, Фрунзе 571/Уметалиева",элитка,55.0,1.0,под самоотделку (псо),,,,,1.0,1.0,,,3.3,0.0,совмещенный,бронированная,паркинг,69800,42.8821,74.5817,Бишкек,10,12,1,1,1,0,1,0,1,1,1,0,1,0,0,0,монолитный,2024
собственник,1,"Бишкек, Московская - Уметалиева, Манасчи Сагынбая 221/район улиц Токтогула-Турусбекова (тихий центр)",индивид. планировка,30.0,1.0,хорошее,,,,проводной,1.0,,,,,,,бронированная,паркинг,48500,42.8721,74.5832,Бишкек,1,4,0,0,0,0,0,0,0,0,0,0,0,0,0,0,кирпичный,
собственник,2,"Бишкек, Аламедин-1 м-н, в микрорайоне Аламедин-1 59/за рынком Чынар",105 серия,52.0,1.0,хорошее,,,,проводной,1.0,1.0,полностью меблирована,,,,раздельный,бронированная,паркинг,56000,42.8765,74.6889,Бишкек,5,5,0,0,0,0,0,0,0,0,0,0,0,0,0,0,панельный,
собственник,2,"Бишкек, Гагарина, Тимура Фрунзе/Гагарина",элитка,64.0,1.0,под самоотделку (псо),,,,,1.0,1.0,,,3.0,,раздельный,бронированная,паркинг,57700,42.8516,74.5347,Бишкек,8,10,1,1,1,0,1,0,0,0,1,0,0,0,1,0,монолитный,2023
собственник,1,"Бишкек, Нижний Токольдош,  ул. Кийизбаева/Передовая (мкрн. ""Восток-5"")",элитка,47.0,1.0,под самоотделку (псо),,,,проводной,1.0,1.0,,,3.0,1.0,совмещенный,бронированная,рядом охраняемая стоянка,44500,42.8683,74.6319,Бишкек,10,12,1,1,0,0,0,0,0,0,0,0,0,0,1,0,монолитный,2023
собственник,1,"Бишкек, Гагарина, Тимура Фрунзе/Гагарина",элитка,43.0,1.0,под самоотделку (псо),,,,,1.0,1.0,,,3.0,,совмещенный,бронированная,паркинг,38900,42.8506,74.5324,Бишкек,10,11,1,1,0,0,1,0,0,0,0,0,0,0,1,0,монолитный,2023
собственник,1,"Бишкек, Гагарина, Тимура Фрунзе/Гагарина",элитка,40.0,1.0,под самоотделку (псо),,,,,1.0,1.0,,,3.0,,,бронированная,паркинг,40800,42.8516,74.5347,Бишкек,8,10,1,1,0,0,1,0,0,0,0,0,0,0,1,0,монолитный,2023
собственник,2,"Бишкек, Магистраль, Магистраль/Сухэ Батора",элитка,67.0,1.0,под самоотделку (псо),,,,,1.0,1.0,,,3.0,,совмещенный,бронированная,паркинг,70400,42.8175,74.6107,Бишкек,16,16,1,1,0,0,0,0,0,0,0,0,0,0,0,0,монолитный,2022
собственник,2,"Бишкек, Горького - Алма-Атинская, 7 апреля 1/1/Горького",элитка,66.0,1.0,под самоотделку (псо),,,,,1.0,1.0,,,3.0,,раздельный,бронированная,паркинг,52500,42.8585,74.6315,Бишкек,3,10,1,1,1,0,1,0,0,0,0,0,0,0,1,0,монолитный,2024
собственник,2,"Бишкек, Московская - Белинка",индивид. планировка,50.0,1.0,хорошее,,,,,,,,,,,,,,75000,42.8683,74.5879,Бишкек,5,5,0,0,0,0,0,0,0,0,0,0,0,0,0,0,кирпичный,
собственник,2,"Бишкек, Военторг, Манасчы Сагынбая 168",элитка,67.0,1.0,не достроено,0.0,0.0,обмен не предлагать,,,,,,3.2,,,,,63650,42.8716,74.5945,Бишкек,2,17,0,0,0,0,0,0,0,0,0,0,0,0,1,0,кирпичный,2025
агент,3,"Бишкек, 8 м-н, 7 микрорайон",106 серия,68.0,1.0,евроремонт,,,обмен не предлагать,проводной,1.0,1.0,пустая,ламинат,3.0,1.0,раздельный,бронированная,паркинг,82500,42.8298,74.6119,Бишкек,8,9,1,1,0,1,1,0,1,0,1,0,1,0,0,0,панельный,
собственник,2,"Бишкек, 5 м-н 8",104 серия,48.0,1.0,евроремонт,,,,оптика,1.0,1.0,частично меблирована,паркет,,,,бронированная,паркинг,69500,42.8345,74.6231,Бишкек,2,4,1,0,0,0,1,0,0,0,1,0,1,0,0,0,панельный,
агент,2,"Бишкек, Мед. академия",индивид. планировка,48.0,1.0,хорошее,0.0,1.0,,проводной,1.0,1.0,полностью меблирована,ламинат,,,раздельный,бронированная,паркинг,66000,42.8399,74.6033,Бишкек,4,5,1,0,0,0,0,0,0,0,0,0,0,0,0,0,кирпичный,
агент,3,"Бишкек, Магистраль, Байтик Баатыра/Токомбаева",элитка,100.0,1.0,под самоотделку (псо),0.0,0.0,обмен не предлагать,,1.0,1.0,,,3.0,,2 с/у и более,бронированная,рядом охраняемая стоянка,113000,42.819,74.6048,Бишкек,2,16,0,1,1,0,0,0,0,0,0,0,0,0,0,0,монолитный,2024
агент,1,"Бишкек, Джал 15 м-н, Ахунбаева/Тыналиева",элитка,41.45,1.0,евроремонт,0.0,0.0,обмен не предлагать,,1.0,1.0,пустая,ламинат,3.0,,совмещенный,бронированная,паркинг,55500,42.8451,74.5654,Бишкек,11,14,1,0,1,0,0,0,0,0,0,0,0,0,0,0,монолитный,2023
агент,4,"Бишкек, Арча-Бешик ж/м, Актан 64 (пересек) Куюкова",индивид. планировка,84.0,1.0,евроремонт,0.0,0.0,обмен не предлагать,оптика,1.0,1.0,частично меблирована,ламинат,3.0,0.0,совмещенный,бронированная,,89880,42.8364,74.546,Бишкек,5,7,0,0,0,0,0,0,0,0,0,0,0,0,1,0,монолитный,2023
агент,1,"Бишкек, Керемет ж/м",элитка,39.0,1.0,не достроено,1.0,0.0,обмен не предлагать,оптика,1.0,1.0,пустая,,,,совмещенный,бронированная,паркинг,26520,42.8845,74.5382,Бишкек,4,5,0,0,0,0,0,0,0,0,0,0,0,0,0,0,кирпичный,2024
агент,3,"Бишкек, Шлагбаум",хрущевка,66.0,1.0,хорошее,0.0,1.0,обмен не предлагать,оптика,1.0,1.0,частично меблирована,ламинат,,,совмещенный,бронированная,,59500,42.8734,74.5579,Бишкек,2,2,0,0,0,0,0,0,0,0,1,0,1,0,0,0,кирпичный,
агент,2,"Бишкек, Восток-5 м-н, 7 апреля/Мамбетова",106 серия,52.0,1.0,хорошее,,,,,,,,,,,,,,69000,42.8703,74.6344,Бишкек,8,9,0,0,0,0,0,0,0,0,0,0,0,0,0,0,панельный,
собственник,1,"Бишкек, Ден Сяопина - Фучика, ул. Фучика, 38/2 / ул. Рыскулова",элитка,35.0,1.0,евроремонт,,,,,0.0,0.0,,,2.8,0.0,совмещенный,металлическая,паркинг,43500,42.8813,74.5612,Бишкек,7,9,0,0,0,0,0,0,0,0,0,0,0,0,0,0,монолитный,
агент,2,"Бишкек, Кок-Жар ж/м, ж/м Кок-Жар, ул. Куйручук 20/7",элитка,71.0,1.0,евроремонт,,,,,,,,,3.0,,,,,86000,42.8439,74.6435,Бишкек,7,10,0,0,0,0,0,0,0,0,0,0,0,0,0,0,панельный,2021
агент,3,"Бишкек, Московская - Белинка",элитка,146.0,,евроремонт,,,,,,,,,,,,,,255000,42.8675,74.5897,Бишкек,8,11,0,0,0,0,0,0,0,0,0,0,0,0,0,0,кирпичный,2012
собственник,1,"Бишкек, АЮ Grand, ул.Анкар  1/19",элитка,43.0,1.0,евроремонт,,,,,,,,ламинат,,,,бронированная,паркинг,49500,42.8565,74.672,Бишкек,13,13,0,0,0,0,0,0,0,0,0,0,0,0,1,0,кирпичный,
агент,1,"Бишкек, Асанбай м-н",элитка,46.0,1.0,евроремонт,,,,,,,,,,,,,,63000,42.8177,74.6251,Бишкек,9,12,0,0,0,0,0,0,0,0,0,0,0,0,0,0,кирпичный,
собственник,3,"Бишкек, Филармония, Абдумомунова 288/Манаса",элитка,106.0,1.0,хорошее,,,,,1.0,,частично меблирована,ламинат,,,,бронированная,паркинг,163000,42.88,74.5898,Бишкек,6,10,1,1,1,1,1,0,0,0,1,0,1,0,1,0,кирпичный,2014
агент,3,"Бишкек, Эне-Сай ж/м, Алмаатинская 410",индивид. планировка,54.0,1.0,среднее,,,,,0.0,,полностью меблирована,дерево,,,раздельный,деревянная,,36500,42.9223,74.6326,Бишкек,1,2,0,0,0,0,0,0,0,0,0,0,0,0,0,0,кирпичный,
агент,2,"Бишкек, 12 м-н, Алма-Атинская/Южная магистраль",элитка,68.0,1.0,евроремонт,,,,,,,,,2.8,,,,,75000,42.8127,74.6419,Бишкек,1,9,0,0,0,0,0,0,0,0,0,0,0,0,0,0,кирпичный,2022
агент,3,"Бишкек, Джал-29 м-н, Садырбаева 258а",элитка,77.0,1.0,под самоотделку (псо),,,,,,,пустая,,3.0,,,бронированная,паркинг,85000,42.8306,74.5657,Бишкек,8,12,0,1,0,0,0,0,0,0,0,0,0,0,0,0,монолитный,
собственник,5,"Бишкек, Магистраль, Куттубаева/Южная Магистраль",пентхаус,141.0,,под самоотделку (псо),,,,,,,,,3.2,,,,,130000,42.8163,74.6224,Бишкек,11,12,0,0,0,0,0,0,0,0,0,0,0,0,0,0,кирпичный,2024
собственник,1,"Бишкек, Средний Джал м-н, мкр. Джал-23 18/2",индивид. планировка,46.0,1.0,евроремонт,,,,проводной,1.0,1.0,полностью меблирована,ламинат,3.0,0.0,совмещенный,бронированная,паркинг,62500,42.8407,74.565,Бишкек,14,14,0,1,0,0,0,0,0,0,1,0,1,0,1,0,монолитный,2022
собственник,1,"Бишкек, Магистраль, пр. Ч.Айтматова - Масалиева",108 серия,48.0,1.0,евроремонт,,,,,1.0,1.0,,,2.8,,совмещенный,бронированная,,59800,42.8236,74.5906,Бишкек,6,9,0,0,0,0,0,0,0,0,0,0,0,0,0,0,панельный,2023
агент,2,"Бишкек, Магистраль, Сухэ-Батора/Токомбаева",элитка,68.0,1.0,евроремонт,,,,,,,,,3.0,,,,,128000,42.8195,74.6155,Бишкек,11,12,0,0,0,0,0,0,0,0,0,0,0,0,0,0,монолитный,2022
собственник,2,"Бишкек, Магистраль, Ч. Айтматова/Масалиева",108 серия,75.0,1.0,евроремонт,0.0,0.0,обмен не предлагать,,1.0,1.0,,ламинат,2.8,,2 с/у и более,,,102500,42.8259,74.5903,Бишкек,3,9,1,1,0,0,0,0,0,0,0,0,0,0,0,0,монолитный,2022
агент,3,"Бишкек, Джал-23 м-н (Нижний Джал), Ахунбаева 198",элитка,103.0,1.0,евроремонт,,,,,,,частично меблирована,,3.2,,раздельный,бронированная,,135000,42.8434,74.5663,Бишкек,6,10,0,0,0,0,0,0,0,0,1,0,1,0,0,0,монолитный,2015
агент,2,"Бишкек, Магистраль, Сухэ Батора и Токомбаева",элитка,69.0,1.0,под самоотделку (псо),,,обмен не предлагать,,,,,,,,раздельный,,,63000,42.8178,74.6138,Бишкек,14,16,0,0,0,0,0,0,0,0,0,0,0,0,0,1,монолитный,2023
агент,1,"Бишкек, Магистраль, Сухэ Батора/Южная Магистраль",элитка,36.0,1.0,под самоотделку (псо),,,обмен не предлагать,,,,,,3.0,,совмещенный,,,36200,42.8217,74.6172,Бишкек,6,14,0,0,0,0,0,0,0,0,0,0,0,0,1,0,монолитный,2022
агент,4,"Бишкек, Тунгуч м-н, Тунгуч 40",элитка,108.0,1.0,евроремонт,,,,,1.0,1.0,,,2.8,,раздельный,бронированная,,130000,42.8535,74.6879,Бишкек,9,12,0,0,0,0,0,0,0,0,0,1,1,0,0,0,монолитный,2019
агент,2,"Бишкек, 7 м-н",106 серия,52.0,1.0,среднее,,,,,,1.0,,,,,раздельный,,,79500,42.8344,74.6189,Бишкек,7,9,0,0,0,0,0,0,0,0,0,0,0,0,0,0,панельный,
агент,2,"Бишкек, Асанбай м-н, Токомбаева/Куттубаева",элитка,56.0,1.0,под самоотделку (псо),,,,,,,,,3.0,,раздельный,бронированная,,70000,42.8176,74.6247,Бишкек,5,12,0,0,0,0,0,0,0,0,0,0,0,0,1,0,монолитный,2022
агент,2,"Бишкек, Магистраль, Сухэ Батора/Токомбаева",элитка,85.0,1.0,евроремонт,,,,,,,,,3.0,,,,,115000,42.8213,74.6168,Бишкек,4,14,0,0,0,0,0,0,0,0,0,0,0,0,0,0,кирпичный,2022
собственник,1,"Бишкек, КНУ, Уметалиева-Фрунзе 155",элитка,43.0,1.0,евроремонт,,,,,1.0,,,,3.0,,совмещенный,бронированная,,64000,42.883,74.5823,Бишкек,7,10,0,0,0,0,0,0,0,0,1,0,1,0,1,0,монолитный,2022
собственник,2,"Бишкек, Верхний Джал м-н",106 серия,63.2,1.0,хорошее,,1.0,,проводной,1.0,1.0,полностью меблирована,ламинат,,0.0,раздельный,бронированная,рядом охраняемая стоянка,86000,42.8371,74.566,Бишкек,5,9,0,0,0,0,0,0,0,0,1,0,1,0,0,0,панельный,2008
агент,4,"Бишкек, Госрегистр, пр. Чингиза Айтматова 4",элитка,112.0,1.0,евроремонт,,,,,,,полностью меблирована,,3.0,,раздельный,бронированная,,182000,42.8626,74.5883,Бишкек,10,12,0,0,0,0,0,0,0,0,0,0,1,0,0,0,монолитный,2019
собственник,2,"Бишкек, 7 м-н",106 серия,52.0,1.0,среднее,,,,,,1.0,,,,,раздельный,,,79500,42.8343,74.6188,Бишкек,7,9,0,0,0,0,0,0,0,0,1,0,1,0,0,0,панельный,
агент,3,"Бишкек, Московская - Уметалиева, Шевченко 56",элитка,80.0,1.0,под самоотделку (псо),,,,,,1.0,,,3.0,,раздельный,,,80000,42.8718,74.5821,Бишкек,5,12,0,0,0,0,0,0,0,0,0,0,0,0,0,0,монолитный,2024
агент,4,"Бишкек, Тунгуч м-н, Тунгуч 40",элитка,108.0,1.0,евроремонт,,,,,1.0,1.0,частично меблирована,,2.8,,раздельный,,,130000,42.8535,74.6879,Бишкек,9,12,0,0,0,0,0,0,0,0,0,1,1,0,0,0,монолитный,2019
агент,4,"Бишкек, Магистраль",индивид. планировка,155.0,,хорошее,,,,,,,,,,,,,,150000,42.8284,74.6071,Бишкек,9,10,0,0,0,0,0,0,0,0,0,0,0,0,0,0,кирпичный,
собственник,1,"Бишкек, Горького - Алма-Атинская, Горького",элитка,38.18,1.0,под самоотделку (псо),1.0,0.0,рассмотрю варианты,оптика,0.0,1.0,,,3.0,0.0,совмещенный,бронированная,паркинг,36000,42.8568,74.6308,Бишкек,2,12,1,1,1,0,0,0,1,0,0,0,0,0,0,0,монолитный,2024
агент,3,"Бишкек, Душанбинка",элитка,107.2,1.0,евроремонт,,,,,,1.0,,,,,раздельный,бронированная,,220000,42.8495,74.5949,Бишкек,2,3,0,1,1,0,0,0,0,0,0,0,0,0,0,0,кирпичный,2015
агент,2,"Бишкек, Душанбинка",элитка,59.6,1.0,евроремонт,,,,,,,,,,,,,,115000,42.8497,74.5949,Бишкек,2,3,0,1,1,0,0,0,0,0,0,0,0,0,0,0,кирпичный,2015
агент,3,"Бишкек, Восток-5 м-н",105 серия,62.0,1.0,хорошее,0.0,1.0,обмен не предлагать,,1.0,1.0,частично меблирована,линолеум,2.8,,раздельный,бронированная,рядом охраняемая стоянка,85000,42.8702,74.6361,Бишкек,3,5,1,0,0,0,0,0,0,0,0,0,0,0,0,0,панельный,1987
агент,1,"Бишкек, Улан-2 м-н",106 серия,45.0,1.0,хорошее,,1.0,обмен не предлагать,проводной,1.0,1.0,частично меблирована,ламинат,,0.0,совмещенный,металлическая,паркинг,51000,42.8452,74.6335,Бишкек,9,9,1,1,0,0,0,0,0,0,1,0,1,0,1,0,панельный,2016
агент,4,"Бишкек, Дворец спорта, Абдумомунова 244",элитка,122.0,1.0,евроремонт,,,,проводной,0.0,1.0,полностью меблирована,ламинат,3.0,,2 с/у и более,бронированная,рядом охраняемая стоянка,185000,42.8799,74.594,Бишкек,11,12,1,1,1,0,0,0,0,0,1,0,1,0,1,0,монолитный,2018
агент,2,"Бишкек, 4 м-н",104 серия,46.0,1.0,хорошее,,,,проводной,1.0,0.0,частично меблирована,ламинат,,0.0,совмещенный,металлическая,рядом охраняемая стоянка,59500,42.8395,74.6268,Бишкек,1,4,1,0,0,1,0,0,0,0,1,0,1,0,0,0,панельный,
агент,3,"Бишкек, Джальская больница",индивид. планировка,123.0,1.0,хорошее,,,,проводной,1.0,0.0,полностью меблирована,ламинат,,0.0,2 с/у и более,металлическая,рядом охраняемая стоянка,160000,42.8432,74.5733,Бишкек,6,8,1,0,0,1,0,0,0,0,1,0,1,0,1,0,монолитный,
агент,2,"Бишкек, Асанбай м-н, Айтиева 17/1",элитка,73.0,1.0,евроремонт,,,,проводной,1.0,1.0,полностью меблирована,ламинат,,1.0,раздельный,бронированная,рядом охраняемая стоянка,102000,42.8213,74.6222,Бишкек,10,10,1,1,1,0,0,0,0,0,1,0,1,0,1,0,монолитный,2015
агент,3,"Бишкек, Молодая Гвардия",105 серия,63.0,1.0,хорошее,,,,проводной,1.0,1.0,частично меблирована,линолеум,,0.0,раздельный,металлическая,паркинг,89000,42.8742,74.5735,Бишкек,2,5,1,0,0,1,0,0,0,0,0,1,1,0,0,0,панельный,
агент,2,"Бишкек, Асанбай м-н, Айтиева 17/1",элитка,77.0,1.0,евроремонт,,,,проводной,1.0,1.0,полностью меблирована,ламинат,,0.0,раздельный,бронированная,рядом охраняемая стоянка,106000,42.8213,74.6222,Бишкек,10,10,1,1,0,0,0,0,0,0,1,0,1,0,1,0,монолитный,2015
агент,1,"Бишкек, ТЭЦ",индивид. планировка,32.0,1.0,среднее,,,,проводной,1.0,0.0,частично меблирована,ламинат,,0.0,совмещенный,металлическая,рядом охраняемая стоянка,35000,42.8781,74.6574,Бишкек,2,2,1,0,0,0,0,0,0,0,1,0,1,0,0,0,кирпичный,
агент,5,"Бишкек, Асанбай м-н, Айтиева 17/1",элитка,165.0,1.0,евроремонт,,,,проводной,1.0,1.0,полностью меблирована,ламинат,,0.0,2 с/у и более,бронированная,рядом охраняемая стоянка,207000,42.8213,74.6222,Бишкек,10,10,1,1,0,0,0,0,0,1,1,0,1,0,1,0,монолитный,2015
агент,2,"Бишкек, Парк Ататюрк, Ахунбаева/Шакирова",104 серия,43.0,1.0,евроремонт,,,,adsl,1.0,1.0,,,,,совмещенный,,,57000,42.8436,74.5963,Бишкек,4,4,0,0,0,0,0,0,0,0,1,0,1,0,0,0,кирпичный,
агент,5,"Бишкек, 4 м-н",элитка,275.0,1.0,евроремонт,,,,проводной,1.0,1.0,полностью меблирована,ламинат,,0.0,2 с/у и более,бронированная,паркинг,350000,42.8396,74.6235,Бишкек,7,10,1,1,0,0,0,0,0,1,1,0,1,0,1,0,монолитный,
агент,2,"Бишкек, АЮ Grand, Ч.Валиханова 2в",индивид. планировка,42.0,1.0,евроремонт,,,,adsl,1.0,0.0,полностью меблирована,ламинат,2.8,,совмещенный,бронированная,,46500,42.8526,74.6774,Бишкек,3,4,0,0,0,0,0,0,0,0,1,0,1,0,0,0,кирпичный,2022
собственник,4,"Бишкек, ЦУМ, Шопокова 101/1/Токтогула",элитка,182.0,1.0,евроремонт,,,,проводной,1.0,1.0,полностью меблирована,паркет,3.0,1.0,2 с/у и более,бронированная,паркинг,220000,42.8726,74.6154,Бишкек,7,10,1,1,0,0,1,0,0,0,0,0,0,0,0,0,кирпичный,2011
собственник,2,"Бишкек, Аламедин-1 м-н 70",105 серия,52.0,1.0,среднее,0.0,0.0,обмен не предлагать,проводной,1.0,1.0,,линолеум,,,раздельный,бронированная,,65500,42.8791,74.6891,Бишкек,1,5,0,0,0,0,0,0,0,0,0,0,0,0,0,0,панельный,
собственник,2,"Бишкек, Карпинка, Суюмбаева/Токтогула 51",элитка,79.13,1.0,под самоотделку (псо),,,обмен не предлагать,,1.0,1.0,,,,,раздельный,,паркинг,79000,42.8718,74.6247,Бишкек,9,9,0,0,0,0,0,0,0,0,0,0,0,0,1,0,монолитный,2024
агент,2,"Бишкек, Средний Джал м-н, Минжылкиева",элитка,90.0,1.0,евроремонт,,,,adsl,0.0,1.0,полностью меблирована,ламинат,,,раздельный,бронированная,,97900,42.8373,74.5648,Бишкек,2,12,0,0,0,0,0,0,0,0,1,0,1,0,0,0,кирпичный,2013
агент,1,"Бишкек, Карпинка, Суюмбаева/Токтогула 51",элитка,46.0,1.0,под самоотделку (псо),,,обмен не предлагать,,1.0,1.0,,,,,совмещенный,,паркинг,48000,42.8718,74.6247,Бишкек,6,9,0,0,0,0,0,0,0,0,0,0,0,0,1,0,монолитный,2024
агент,1,"Бишкек, АЮ Grand,  ул.Анкар  1/19/Валиханова",106 серия,44.0,1.0,евроремонт,,,,,,,частично меблирована,ламинат,,,,,,54000,42.8565,74.672,Бишкек,14,14,0,0,0,0,0,0,0,0,0,0,0,0,0,0,монолитный,2024
собственник,2,"Бишкек, Бишкек-Парк, Токтогула 165/Исанова",элитка,80.0,1.0,евроремонт,0.0,0.0,обмен не предлагать,проводной,1.0,1.0,полностью меблирована,ламинат,3.0,0.0,раздельный,бронированная,рядом охраняемая стоянка,130000,42.873,74.5901,Бишкек,5,16,1,1,1,1,0,1,1,1,1,0,1,0,1,0,монолитный,2018
агент,1,"Бишкек, Аламедин-1 м-н",105 серия,32.0,1.0,хорошее,,,,,,1.0,,,,,,,,39900,42.8749,74.6877,Бишкек,8,9,0,0,0,0,0,0,0,0,1,0,1,0,0,0,панельный,
агент,2,"Бишкек, Московская - Белинка, Манаса/Боконбаева",индивид. планировка,55.0,1.0,среднее,,,,,1.0,1.0,,,,,раздельный,бронированная,,65000,42.8668,74.588,Бишкек,4,9,0,0,0,0,0,0,0,0,1,0,1,0,0,0,монолитный,
агент,1,"Бишкек, Горького - Алма-Атинская, Анкара/7 апреля",элитка,39.0,1.0,евроремонт,,,,,,,частично меблирована,,3.0,,,бронированная,,48000,42.8573,74.6413,Бишкек,3,9,0,0,0,0,0,0,0,0,0,0,0,0,0,0,монолитный,2021
агент,3,"Бишкек, Магистраль, Куттубаева/Южная Магистраль",элитка,90.0,1.0,евроремонт,,,,,1.0,1.0,полностью меблирована,ламинат,3.0,,раздельный,бронированная,,117000,42.8129,74.6188,Бишкек,12,13,0,0,1,0,0,0,0,0,0,0,0,0,0,0,монолитный,2023
агент,2,"Бишкек, Молодая Гвардия, Молодая Гвардия 7",сталинка,55.0,1.0,евроремонт,,,,,1.0,1.0,полностью меблирована,ламинат,3.0,,раздельный,бронированная,,72000,42.8692,74.5756,Бишкек,2,3,1,0,0,0,0,0,0,0,0,1,1,0,1,0,кирпичный,
агент,4,"Бишкек, Баха, Валдайская 1",элитка,160.0,1.0,евроремонт,,,,,1.0,,полностью меблирована,ламинат,3.0,,2 с/у и более,бронированная,,189000,42.8416,74.5626,Бишкек,10,10,0,0,0,0,0,0,0,0,1,0,1,1,1,0,монолитный,2020
собственник,2,"Бишкек, Матросова",элитка,78.0,,под самоотделку (псо),,,,,,,,,,,2 с/у и более,,рядом охраняемая стоянка,93900,42.8481,74.6184,Бишкек,3,3,0,0,0,0,0,0,0,0,0,0,0,0,0,0,монолитный,2024
агент,3,"Бишкек, Магистраль, Асанбай, Сухэ-Батора",элитка,104.76,1.0,под самоотделку (псо),,,,,,,,,3.3,,,,,141426,42.8189,74.6133,Бишкек,11,16,0,0,0,0,0,0,0,0,0,0,0,0,0,0,монолитный,2022
агент,1,"Бишкек, Магистраль, Ч. Айтматова/Масалиева",108 серия,48.6,1.0,евроремонт,,,,,1.0,1.0,,ламинат,2.8,,совмещенный,бронированная,,59500,42.8249,74.591,Бишкек,9,10,1,1,0,0,0,0,1,0,0,0,0,0,0,0,монолитный,2022
агент,3,"Бишкек, Душанбинка",элитка,118.0,1.0,евроремонт,,,,,1.0,1.0,полностью меблирована,ламинат,,,раздельный,бронированная,,220000,42.8496,74.5956,Бишкек,2,3,1,1,1,0,0,0,0,0,1,0,1,0,1,0,кирпичный,2015
агент,3,"Бишкек, ТЭЦ",элитка,90.0,,под самоотделку (псо),,,,,,,,,,,,,,63000,42.8776,74.6503,Бишкек,6,10,0,0,0,0,0,0,0,0,0,0,0,0,0,0,кирпичный,
агент,2,"Бишкек, Душанбинка",элитка,60.0,1.0,евроремонт,,,,,1.0,,,,3.0,,раздельный,бронированная,,120000,42.8495,74.5956,Бишкек,2,3,0,1,1,0,0,0,0,0,1,0,1,0,1,0,кирпичный,2015
агент,3,"Бишкек, Карпинка",104 серия,58.0,1.0,хорошее,,,,,1.0,1.0,частично меблирована,ламинат,,,совмещенный,бронированная,,70500,42.88,74.6194,Бишкек,5,5,1,0,0,0,0,0,0,0,0,0,0,0,0,0,панельный,
агент,3,"Бишкек, Дордой Плаза",элитка,141.0,1.0,евроремонт,,,,,,,полностью меблирована,плитка,3.2,,раздельный,бронированная,,190350,42.8734,74.6194,Бишкек,7,15,1,1,1,0,0,0,0,1,1,0,1,0,1,0,кирпичный,2010
агент,3,"Бишкек, Магистраль, Токомбаева 29",элитка,63.0,1.0,под самоотделку (псо),,,,,,,,,3.0,,раздельный,бронированная,паркинг,78750,42.823,74.6126,Бишкек,5,8,0,0,0,0,0,0,0,0,0,0,0,0,0,0,монолитный,2024
собственник,1,"Бишкек, 10 м-н 19",105 серия,34.2,1.0,среднее,0.0,0.0,рассмотрю варианты,проводной,1.0,0.0,частично меблирована,линолеум,,1.0,совмещенный,металлическая,,51000,42.832,74.6014,Бишкек,4,5,1,0,0,0,0,0,0,0,1,0,1,0,1,0,панельный,
агент,1,"Бишкек, Аламедин-1 м-н, Ауэзова",105 серия,43.0,1.0,хорошее,,,,,,,,,,,,,,46000,42.8766,74.6897,Бишкек,8,9,0,0,0,0,0,0,0,0,0,0,0,0,0,0,панельный,
агент,3,"Бишкек, Юг-2 м-н",105 серия,80.0,1.0,среднее,,,,,1.0,1.0,,,,,раздельный,,,81000,42.8578,74.6089,Бишкек,8,9,0,0,0,0,0,0,0,0,0,0,0,0,0,0,панельный,
собственник,3,"Бишкек, 7 м-н, 7 мкр., ул. Юнусалиева",элитка,76.8,1.0,под самоотделку (псо),,,,,1.0,1.0,,,3.3,,,бронированная,,138000,42.829,74.6218,Бишкек,8,15,1,1,1,0,0,1,1,1,0,0,0,0,1,0,монолитный,2022
агент,2,"Бишкек, Физкультурный, Пудовкина/Скрябина",хрущевка,41.0,1.0,хорошее,,,,,1.0,1.0,,,,,совмещенный,,,55500,42.8482,74.6157,Бишкек,3,3,0,0,0,0,0,0,0,0,0,0,0,0,0,0,кирпичный,
агент,2,"Бишкек, Кок-Жар ж/м, Алматинка 3/Медерова",элитка,74.0,1.0,хорошее,0.0,0.0,обмен не предлагать,,1.0,1.0,полностью меблирована,ламинат,,,раздельный,бронированная,,78000,42.8512,74.6348,Бишкек,5,9,1,1,0,0,0,0,0,0,0,0,1,1,1,0,кирпичный,2017
агент,1,"Бишкек, Карпинка",104 серия,36.0,1.0,хорошее,,,,,1.0,1.0,,ламинат,,,совмещенный,,,53500,42.8677,74.6233,Бишкек,1,5,0,0,0,0,0,0,0,0,0,0,0,0,0,0,панельный,
агент,3,"Бишкек, Московская - Уметалиева, Киевская/Турусбекова",элитка,76.0,1.0,хорошее,,,,,0.0,,,,,,совмещенный,,,89000,42.8753,74.584,Бишкек,10,10,0,0,0,0,0,0,0,0,0,0,0,0,0,0,кирпичный,
агент,3,"Бишкек, Баха",индивид. планировка,70.0,1.0,среднее,,,,,0.0,0.0,,,,,раздельный,,,65000,42.8454,74.564,Бишкек,1,6,0,0,0,0,0,0,0,0,0,0,0,0,0,0,кирпичный,
агент,1,"Бишкек, Политех, Джунусалиева 66/Ахунбаева",хрущевка,30.0,1.0,среднее,,,,,1.0,1.0,,,,,совмещенный,,,45800,42.8449,74.5812,Бишкек,3,4,0,0,0,0,0,0,0,0,0,0,0,0,0,0,кирпичный,
агент,3,"Бишкек, Военторг, Исанова 45",элитка,86.0,1.0,евроремонт,,,,,,,,,3.0,,,,,163000,42.8718,74.5916,Бишкек,4,12,0,0,0,0,0,0,0,0,0,0,0,0,0,0,монолитный,2017
агент,1,"Бишкек, Кара-Жыгач ж/м",элитка,47.0,1.0,евроремонт,,,,,1.0,,,,,,раздельный,,,53500,42.8592,74.6533,Бишкек,3,5,0,0,0,0,0,0,0,0,1,0,1,0,1,0,кирпичный,2024
агент,2,"Бишкек, Магистраль, Байтик Баатыра (недалеко от Южных ворот)",элитка,80.0,1.0,евроремонт,,,обмен не предлагать,,,1.0,частично меблирована,,3.0,1.0,2 с/у и более,бронированная,паркинг,136000,42.8171,74.6059,Бишкек,5,14,1,1,1,0,0,1,0,0,0,0,0,0,0,0,монолитный,2022
агент,1,"Бишкек, Магистраль,  ул. Токомбаева/Куттубаева",элитка,48.0,1.0,под самоотделку (псо),,,,,,,,,,,,,,74000,42.8167,74.6245,Бишкек,8,18,0,0,0,0,0,0,0,0,0,0,0,0,0,0,монолитный,2025
агент,1,"Бишкек, Горького - Алма-Атинская, 7 апреля 1/1/Горького",элитка,41.0,1.0,под самоотделку (псо),,,,,,,,,3.0,,,,,37000,42.8585,74.6315,Бишкек,5,10,0,0,0,0,0,0,0,0,0,0,0,0,0,0,монолитный,
агент,3,"Бишкек, 6 м-н",104 серия,58.0,1.0,хорошее,,,,,,,,,,,,,,81000,42.8237,74.626,Бишкек,2,4,0,0,0,0,0,0,0,0,0,0,0,0,0,0,панельный,
собственник,3,"Бишкек, Гагарина, Кривоносова/Айни-Кривоносова",105 серия,63.0,1.0,евроремонт,,,,проводной,1.0,1.0,частично меблирована,ламинат,2.8,0.0,раздельный,бронированная,рядом охраняемая стоянка,77000,42.8489,74.5406,Бишкек,5,5,1,0,0,0,0,0,0,0,1,0,1,0,0,0,панельный,
агент,2,"Бишкек, ТЭЦ",хрущевка,41.0,1.0,хорошее,,,,,,,,,,,,,,51000,42.8756,74.645,Бишкек,2,3,0,0,0,0,0,0,0,0,0,0,0,0,0,0,кирпичный,
агент,2,"Бишкек, Юбилейка",сталинка,56.0,1.0,евроремонт,,,,,,,,,,,,,,75000,42.8627,74.6061,Бишкек,2,3,0,0,0,0,0,0,0,0,0,0,0,0,0,0,кирпичный,
агент,3,"Бишкек, Парк Ататюрк",104 серия,58.0,1.0,хорошее,,,,,,,,,,,,,,69500,42.8434,74.5971,Бишкек,2,4,0,0,0,0,0,0,0,0,0,0,0,0,0,0,панельный,
агент,1,"Бишкек, 12 м-н, 12 мкр., ул. Токомбаева 57/1/Саякбая Каралаева",элитка,44.0,1.0,евроремонт,,,,,,,,,3.0,,,,,80000,42.8128,74.6403,Бишкек,6,13,0,0,0,0,0,0,0,0,0,0,0,0,0,0,монолитный,2023
агент,1,"Бишкек, Чокана Валиханова - Исакеева, Исакеева/Виноградная",элитка,38.0,1.0,евроремонт,,,,,,,,,2.8,,,,,53000,42.8612,74.6673,Бишкек,10,10,0,0,0,0,0,0,0,0,0,0,0,0,0,0,монолитный,2022
агент,3,"Бишкек, Молодая Гвардия",105 серия,80.0,1.0,хорошее,,,,,,,,,,,,,,78000,42.8759,74.5755,Бишкек,2,3,0,0,0,0,0,0,0,0,0,0,0,0,0,0,панельный,
агент,3,"Бишкек, КНУ, Абдымомунова/Уметалиева",элитка,70.0,1.0,евроремонт,,,,,,,,,3.0,,,,,105000,42.881,74.5813,Бишкек,2,12,0,0,0,0,0,0,0,0,0,0,0,0,0,0,монолитный,2019
агент,3,"Бишкек, Магистраль, Байтик Баатыра (недалеко от Южных ворот)",элитка,80.0,1.0,евроремонт,,,,,,,,,3.0,,,,,140000,42.8171,74.6059,Бишкек,9,14,0,0,0,0,0,0,0,0,0,0,0,0,0,0,монолитный,2022
агент,3,"Бишкек, 6 м-н",106 серия,69.0,1.0,евроремонт,,,,,,,,,,,,,,92500,42.8237,74.626,Бишкек,1,9,0,0,0,0,0,0,0,0,0,0,0,0,0,0,панельный,
агент,3,"Бишкек, Мед. академия",хрущевка,60.0,1.0,хорошее,,,,,,,,,,,,,,77500,42.8447,74.605,Бишкек,1,4,0,0,0,0,0,0,0,0,0,0,0,0,0,0,кирпичный,
агент,3,"Бишкек, Магистраль, пр. Ч. Айтматова",элитка,115.0,1.0,евроремонт,,,,,,,,,3.3,,,,,188000,42.8236,74.5858,Бишкек,10,14,0,0,0,0,0,0,0,0,0,0,0,0,0,0,панельный,2022
агент,3,"Бишкек, Магистраль, Байтик Баатыра (недалеко от Южных ворот)",элитка,103.0,1.0,под самоотделку (псо),,,,,,,,,3.0,,,,,158000,42.8171,74.6059,Бишкек,12,14,0,0,0,0,0,0,0,0,0,0,0,0,0,0,монолитный,2022
агент,2,"Бишкек, Магистраль, пр. Ч. Айтматова",элитка,65.0,1.0,евроремонт,,,,,,,,,3.3,,,,,112000,42.8236,74.5858,Бишкек,4,14,0,0,0,0,0,0,0,0,0,0,0,0,0,0,панельный,2022
агент,2,"Бишкек, Магистраль, Байтик Баатыра (недалеко от Южных ворот)/Жумабека",элитка,80.0,1.0,евроремонт,,,,,,,,,3.0,,,,,162000,42.8171,74.6059,Бишкек,5,14,0,0,0,0,0,0,0,0,0,0,0,0,0,0,монолитный,2022
собственник,3,"Бишкек, 10 м-н",104 серия,58.0,,хорошее,,,,проводной,,,,,,,,,,77000,42.832,74.6055,Бишкек,4,4,0,0,0,0,0,0,0,0,0,0,0,0,0,0,панельный,
агент,2,"Бишкек, Карпинка, Суюмбаева/Токтогула",элитка,80.0,,евроремонт,,,,,,,,,,,,,,115000,42.8712,74.624,Бишкек,5,9,0,0,0,0,0,0,0,0,0,0,0,0,0,0,монолитный,2023
агент,3,"Бишкек, Сквер Тоголок Молдо, Боконбаева 152-154",элитка,82.0,1.0,евроремонт,,,,,,,,,3.0,,,,,131000,42.8673,74.5917,Бишкек,4,10,0,0,0,0,0,0,0,0,0,0,0,0,0,0,монолитный,
агент,2,"Бишкек, Политех",элитка,62.0,1.0,евроремонт,,,,,,,,,,,,,,85000,42.8402,74.5824,Бишкек,6,10,0,0,0,0,0,0,0,0,0,0,0,0,0,0,монолитный,
агент,2,"Бишкек, Магистраль, Сухе Батора/Южная Магистраль",элитка,82.78,1.0,под самоотделку (псо),,,,,,,,,3.1,,,,,79900,42.8223,74.6161,Бишкек,3,12,0,0,0,0,0,0,0,0,0,0,0,0,0,0,монолитный,2024
агент,2,"Бишкек, КНУ, Абдымомунова/Уметалиева",элитка,74.0,1.0,евроремонт,,,,,,,,,3.0,,,,,135000,42.8812,74.5812,Бишкек,7,13,0,0,0,0,0,0,0,0,0,0,0,0,0,0,монолитный,2021
агент,3,"Бишкек, Магистраль, Куттубаева/Южная Магистраль",элитка,90.0,1.0,евроремонт,,,,,,,,,3.0,,,,,121500,42.8161,74.6228,Бишкек,5,12,0,0,0,0,0,0,0,0,0,0,0,0,0,0,монолитный,2022
агент,2,"Бишкек, Военторг, Тоголок Молдо/Токтогула",элитка,62.0,1.0,евроремонт,,,,,,,,,3.1,,,,,93500,42.8726,74.596,Бишкек,4,14,0,0,0,0,0,0,0,0,0,0,0,0,0,0,монолитный,2021
собственник,2,"Бишкек, Кок-Жар ж/м,  ул. 7 Апреля / Молдокулова",элитка,68.84,1.0,под самоотделку (псо),,,,,1.0,1.0,,,3.0,,раздельный,металлическая,рядом охраняемая стоянка,82608,42.8339,74.6399,Бишкек,5,14,0,0,0,0,0,0,0,0,0,0,0,0,0,0,монолитный,
агент,2,"Бишкек, Военторг, Токтогула/Тоголок Молдо",элитка,65.0,1.0,евроремонт,,,,,,,,,3.0,,,,,130000,42.8717,74.5932,Бишкек,10,13,0,0,0,0,0,0,0,0,0,0,0,0,0,0,монолитный,2021
агент,2,"Бишкек, 12 м-н, 12 мкр-н",элитка,62.0,1.0,евроремонт,,,,,,,,,3.0,,,,,84000,42.8113,74.6371,Бишкек,3,10,0,0,0,0,0,0,0,0,0,0,0,0,0,0,монолитный,2020
агент,2,"Бишкек, Верхний Джал м-н",индивид. планировка,70.0,1.0,евроремонт,,,,,,,,,,,,,,78000,42.8342,74.5663,Бишкек,4,6,0,0,0,0,0,0,0,0,0,0,0,0,0,0,кирпичный,
агент,2,"Бишкек, Бишкек-Парк",элитка,80.0,1.0,евроремонт,,,,,,,,,,,,,,130000,42.8754,74.5901,Бишкек,5,16,0,0,0,0,0,0,0,0,0,0,0,0,0,0,кирпичный,
агент,2,"Бишкек, Золотой квадрат",хрущевка,40.0,1.0,хорошее,,,,,,,,,,,,,,63000,42.8756,74.5999,Бишкек,2,2,0,0,0,0,0,0,0,0,0,0,0,0,0,0,кирпичный,
агент,4,"Бишкек, Молодая Гвардия",элитка,112.0,1.0,под самоотделку (псо),,,,,,,,,,,,,,131000,42.8686,74.5768,Бишкек,6,12,0,0,0,0,0,0,0,0,0,0,0,0,0,0,кирпичный,
собственник,3,"Бишкек, КНУ, К. Акиева/Жумабека",элитка,120.0,1.0,евроремонт,,,,,,,,,3.0,,,,,158000,42.8833,74.5786,Бишкек,7,10,0,0,0,0,0,0,0,0,0,0,0,0,0,0,монолитный,2020
агент,1,"Бишкек, Магистраль",элитка,53.0,,под самоотделку (псо),,,,,,,,,,,,,,54500,42.8202,74.6029,Бишкек,3,12,0,0,0,0,0,0,0,0,0,0,0,0,0,0,кирпичный,
агент,2,"Бишкек, 8 м-н",104 серия,43.0,1.0,хорошее,,,,,,,,,,,,,,56500,42.8323,74.611,Бишкек,1,4,0,0,0,0,0,0,0,0,0,0,0,0,0,0,панельный,
агент,3,"Бишкек, Вечерка",106 серия,72.0,1.0,хорошее,,,,,,,,,,,,,,78500,42.8642,74.6128,Бишкек,9,9,0,0,0,0,0,0,0,0,0,0,0,0,0,0,панельный,
агент,3,"Бишкек, Магистраль",элитка,130.0,1.0,евроремонт,,,,,,,,,,,,,,170000,42.8269,74.5865,Бишкек,4,10,0,0,0,0,0,0,0,0,0,0,0,0,0,0,кирпичный,
агент,1,"Бишкек, 5 м-н",105 серия,43.0,1.0,евроремонт,,,,,,,,,,,,,,58000,42.8319,74.6266,Бишкек,6,9,0,0,0,0,0,0,0,0,0,0,0,0,0,0,панельный,
агент,2,"Бишкек, Учкун м-н",106 серия,62.0,1.0,хорошее,,,,,,,,,,1.0,,,,62000,42.8706,74.6958,Бишкек,1,9,0,0,0,0,0,0,0,0,0,0,0,0,0,0,панельный,
агент,1,"Бишкек, Московская - Уметалиева, Шевченко/Боконбаева",104 серия,35.0,1.0,хорошее,,,,,,,,,,,,,,51000,42.868,74.5823,Бишкек,5,5,0,0,0,0,0,0,0,0,0,0,0,0,0,0,панельный,
агент,1,"Бишкек, Восток-5 м-н",105 серия,38.0,1.0,хорошее,,,,,,,,,,,,,,51000,42.8742,74.6358,Бишкек,3,9,0,0,0,0,0,0,0,0,0,0,0,0,0,0,панельный,
агент,2,"Бишкек, 6 м-н",104 серия,45.0,1.0,хорошее,,,,,,,,,,,,,,66000,42.8243,74.6264,Бишкек,2,4,0,0,0,0,0,0,0,0,0,0,0,0,0,0,панельный,
агент,2,"Бишкек, 8 м-н",104 серия,43.0,1.0,хорошее,,,,,,,,,,,,,,64000,42.8341,74.613,Бишкек,3,4,0,0,0,0,0,0,0,0,0,0,0,0,0,0,панельный,
агент,1,"Бишкек, Джальская больница, Ахунбаева - Тыналиева",элитка,56.0,,евроремонт,,,,,,,,,,,,,,67000,42.8454,74.5698,Бишкек,3,10,0,0,0,0,0,0,0,0,0,0,0,0,0,0,монолитный,2023
агент,3,"Бишкек, Городок энергетиков",104 серия,68.0,1.0,хорошее,,,,,,,,,,,,,,76000,42.8774,74.6924,Бишкек,3,4,0,0,0,0,0,0,0,0,0,0,0,0,0,0,кирпичный,
собственник,3,"Бишкек, 12 м-н",106 серия,80.0,1.0,среднее,,,,проводной,1.0,1.0,полностью меблирована,линолеум,3.0,1.0,раздельный,металлическая,паркинг,92500,42.8146,74.6346,Бишкек,6,9,1,1,0,0,1,0,0,0,0,0,0,0,0,0,панельный,1990
агент,3,"Бишкек, Военторг, Исанова/Токтогула",элитка,98.0,1.0,евроремонт,,,обмен не предлагать,,,0.0,,,3.0,,2 с/у и более,бронированная,,147000,42.8733,74.5916,Бишкек,4,13,1,1,0,1,0,0,0,0,0,0,0,0,0,0,монолитный,2022
агент,3,"Бишкек, Магистраль, Байтик Баатыра (недалеко от Южных ворот)",элитка,103.0,1.0,под самоотделку (псо),,,обмен не предлагать,,,1.0,,,3.0,0.0,раздельный,,паркинг,157000,42.8171,74.6059,Бишкек,12,14,1,1,1,0,0,1,1,1,1,0,0,0,0,0,монолитный,2022
агент,1,"Бишкек, 12 м-н",элитка,44.0,1.0,евроремонт,,,,,1.0,,полностью меблирована,,,,,,паркинг,80000,42.814,74.6369,Бишкек,6,13,0,1,1,0,0,0,0,0,0,0,1,0,1,0,монолитный,2023
агент,2,"Бишкек, Магистраль, Масалиева 43/Бакаева",элитка,57.0,1.0,евроремонт,,,,,,,полностью меблирована,,3.0,,,бронированная,,77000,42.83,74.5774,Бишкек,9,12,1,1,0,0,0,0,0,0,0,0,0,0,1,0,монолитный,2017
агент,3,"Бишкек, Махатма Ганди - БЧК/Урицкая",105 серия,80.0,1.0,евроремонт,,,,,,1.0,полностью меблирована,,,,раздельный,бронированная,,78000,42.8915,74.5753,Бишкек,2,3,0,0,0,0,0,0,0,0,0,0,1,0,0,0,панельный,
агент,1,"Бишкек Октябрьский район, Ахунбаева (Бот. Сад)",элитка,43.0,1.0,евроремонт,,,,оптика,1.0,0.0,полностью меблирована,,3.0,1.0,совмещенный,бронированная,,73000,42.8412,74.6322,Бишкек,2,12,0,0,0,0,0,0,0,0,1,0,1,0,0,0,монолитный,2021
агент,2,"Бишкек, Магистраль, Байтик Баатыра (недалеко от Южных ворот)",элитка,80.0,1.0,евроремонт,,,,,,,полностью меблирована,,3.0,,,бронированная,паркинг,162000,42.8171,74.6059,Бишкек,5,14,0,1,1,0,0,0,0,0,1,0,0,0,1,0,монолитный,2022
собственник,1,"Бишкек, 8 м-н, донецкая/жукея пудовкина",104 серия,32.2,1.0,среднее,,,обмен не предлагать,проводной,1.0,1.0,частично меблирована,дерево,2.8,0.0,совмещенный,металлическая,паркинг,49500,42.8372,74.6127,Бишкек,1,4,0,0,0,0,0,0,0,0,1,0,1,0,0,0,панельный,1970
агент,3,"Бишкек, Магистраль",элитка,115.0,1.0,евроремонт,,,,,,,,,,,,,паркинг,188000,42.829,74.5813,Бишкек,10,14,0,1,1,0,0,0,0,0,0,0,0,0,1,0,кирпичный,
агент,3,"Бишкек, Мед. академия",хрущевка,60.0,1.0,хорошее,,,,,1.0,,,,,,,,,77500,42.8429,74.6029,Бишкек,1,4,0,0,0,0,0,0,0,0,0,0,1,0,0,0,кирпичный,1965
агент,1,"Бишкек, Чокана Валиханова - Исакеева, Исакеева/Виноградная",элитка,38.0,1.0,евроремонт,,1.0,,,1.0,0.0,пустая,,2.8,,,бронированная,паркинг,53000,42.8612,74.6673,Бишкек,10,11,0,0,0,0,0,0,0,0,0,0,0,0,0,0,кирпичный,2023
агент,2,"Бишкек, Военторг, Токтогула/Тоголок Молдо",элитка,70.0,1.0,евроремонт,,,,,,0.0,полностью меблирована,,3.0,,раздельный,бронированная,,120000,42.8717,74.5932,Бишкек,3,13,1,1,1,0,0,1,1,0,1,0,1,0,0,0,монолитный,2021
агент,2,"Бишкек, Военторг, Токтогула/Тоголок Молдо",элитка,65.0,1.0,евроремонт,,,,,,0.0,полностью меблирована,,3.0,,раздельный,бронированная,,130000,42.8717,74.5932,Бишкек,10,13,1,1,1,0,0,1,0,0,1,0,1,0,0,0,монолитный,2021
агент,2,"Бишкек, Карпинка, Суюмбаева/Токтогула",элитка,80.0,1.0,евроремонт,,,,проводной,,1.0,,ламинат,,1.0,раздельный,бронированная,,115000,42.8712,74.624,Бишкек,5,9,1,0,1,0,0,1,1,0,0,0,0,0,1,0,монолитный,2023
собственник,4,"Бишкек, Московская - Белинка, Исанова боконбаева 20/Боконбаева",индивид. планировка,85.0,1.0,евроремонт,,,,проводной,1.0,1.0,полностью меблирована,паркет,3.0,0.0,совмещенный,бронированная,рядом охраняемая стоянка,148750,42.8686,74.5907,Бишкек,1,5,0,0,0,1,0,0,0,0,0,0,1,0,1,0,кирпичный,
агент,3,"Бишкек, Магистраль, Ч. Айтматова/А. Масалиева",элитка,71.0,1.0,евроремонт,,,,,,1.0,полностью меблирована,,3.0,,2 с/у и более,бронированная,,108000,42.8258,74.5861,Бишкек,4,12,0,1,0,0,1,1,0,0,1,0,1,0,0,0,монолитный,2020
агент,2,"Бишкек, Московская - Белинка, Исанова",индивид. планировка,44.0,1.0,хорошее,,1.0,,проводной,,1.0,полностью меблирована,ламинат,,1.0,совмещенный,металлическая,,68000,42.8684,74.5907,Бишкек,4,5,1,0,0,0,0,0,0,0,0,0,0,0,0,0,кирпичный,
собственник,4,"Бишкек, Асанбай м-н 40/1/Куттубаева",элитка,150.0,1.0,евроремонт,,,,adsl,1.0,,полностью меблирована,паркет,3.0,0.0,2 с/у и более,,паркинг,250000,42.8181,74.6252,Бишкек,3,9,1,0,1,0,0,0,1,0,1,0,1,0,0,0,кирпичный,2016
агент,3,"Бишкек, Сквер Тоголок Молдо, Исанова/Токтогула/Токтогула",элитка,98.0,1.0,евроремонт,,,,проводной,0.0,0.0,полностью меблирована,ламинат,3.0,,раздельный,металлическая,паркинг,147000,42.8706,74.5914,Бишкек,4,12,1,1,1,0,1,1,0,0,0,0,0,0,1,0,монолитный,2022
агент,2,"Бишкек, Джал-29 м-н",элитка,58.0,1.0,евроремонт,,1.0,,,,0.0,частично меблирована,,,,,бронированная,,78500,42.8305,74.5668,Бишкек,9,10,1,0,0,0,0,0,1,0,1,0,1,0,0,0,кирпичный,2020
агент,3,"Бишкек, 12 м-н",106 серия,68.0,1.0,евроремонт,,1.0,,,1.0,1.0,частично меблирована,,,,,,,89000,42.8159,74.638,Бишкек,7,9,0,0,0,0,0,0,0,0,1,0,1,0,0,0,панельный,
агент,2,"Бишкек, Верхний Джал м-н, мкрн Верхний Джал",элитка,63.0,1.0,евроремонт,,1.0,,,,,,,3.0,,,,,80000,42.835,74.5668,Бишкек,5,10,1,1,0,0,0,0,0,0,0,0,0,0,0,0,монолитный,2014
агент,1,"Бишкек, 10 м-н",105 серия,34.0,,евроремонт,,1.0,,,1.0,0.0,частично меблирована,,,,совмещенный,бронированная,паркинг,56500,42.8304,74.6026,Бишкек,3,5,0,0,0,0,0,0,0,0,0,0,0,0,0,0,панельный,1987
агент,3,"Бишкек, Верхний Джал м-н",элитка,100.0,1.0,евроремонт,,,,,,,полностью меблирована,,,,,,,127000,42.8347,74.5658,Бишкек,5,14,0,1,1,0,0,0,0,0,0,0,0,0,0,0,кирпичный,
агент,1,"Бишкек, Верхний Джал м-н",105 серия,42.0,1.0,хорошее,,1.0,,,1.0,1.0,,,,,,,,57000,42.8361,74.5672,Бишкек,1,9,0,0,0,0,0,0,0,0,0,0,0,0,0,0,панельный,
агент,1,"Бишкек, 7 м-н",104 серия,35.0,1.0,хорошее,,1.0,,,1.0,1.0,частично меблирована,ламинат,,,совмещенный,металлическая,паркинг,56700,42.8341,74.6177,Бишкек,2,4,1,1,0,0,0,0,0,0,0,0,0,0,0,0,панельный,1986
агент,1,"Бишкек, 5 м-н",105 серия,40.0,1.0,хорошее,,1.0,,,,,,,,,совмещенный,,,53500,42.8306,74.6269,Бишкек,2,9,0,0,0,0,0,0,0,0,0,0,0,0,0,0,панельный,
агент,2,"Бишкек, 8 м-н",104 серия,42.0,1.0,среднее,,1.0,,,,1.0,частично меблирована,,,,,металлическая,,64000,42.834,74.6091,Бишкек,2,5,0,1,0,0,0,0,0,0,0,0,1,0,0,0,панельный,
агент,1,"Бишкек, Московская - Белинка, Токтогула/исанова",индивид. планировка,54.0,1.0,евроремонт,,1.0,,,,1.0,частично меблирована,ламинат,,,,бронированная,,70000,42.8725,74.589,Бишкек,5,6,0,1,0,0,0,0,0,0,1,0,1,0,0,0,панельный,
агент,2,"Бишкек, Комфорт, Ибрагимова/Боконбаева",104 серия,50.0,1.0,среднее,,1.0,,,,1.0,пустая,,,,,металлическая,,65000,42.8699,74.6175,Бишкек,2,4,0,1,0,0,0,0,0,0,0,0,0,0,0,0,панельный,
агент,1,"Бишкек, Магистраль,  ул. Куттубаева, 15",элитка,38.0,1.0,евроремонт,,,,,,1.0,частично меблирована,,3.0,,,бронированная,,61500,42.8138,74.6191,Бишкек,5,12,1,1,0,0,0,0,0,0,0,0,0,0,0,0,монолитный,2023
агент,3,"Бишкек, 12 м-н",106 серия,82.0,1.0,евроремонт,,1.0,,,1.0,1.0,,,,,,бронированная,,101000,42.8154,74.6372,Бишкек,7,9,0,1,0,0,0,0,0,0,1,0,1,0,0,0,панельный,
агент,3,"Бишкек, Джал-29 м-н, Тыналиева",элитка,84.0,1.0,евроремонт,,1.0,,,,,,,3.2,,,,,112000,42.8311,74.5681,Бишкек,12,12,1,1,0,0,0,0,0,0,1,0,1,0,0,0,монолитный,2018
агент,2,"Бишкек, Горького - Панфилова",105 серия,50.0,1.0,хорошее,,1.0,,,,1.0,частично меблирована,,,,,металлическая,,71000,42.8587,74.6057,Бишкек,3,9,1,0,0,0,0,0,0,0,0,0,1,0,0,0,панельный,
агент,1,"Бишкек, Военторг, Манасчы Сагынбая 168",элитка,41.0,1.0,под самоотделку (псо),,,,,,1.0,,,3.2,,,металлическая,,53500,42.8716,74.5945,Бишкек,13,16,0,0,0,0,0,0,0,0,0,0,0,0,0,0,монолитный,2025
агент,2,"Бишкек, 12 м-н",106 серия,53.0,1.0,хорошее,,1.0,,,1.0,1.0,,,,,,бронированная,,77000,42.8134,74.6369,Бишкек,7,9,1,1,0,0,0,0,1,0,0,0,1,0,0,0,панельный,
агент,2,"Бишкек, Парк Панфилова/Спартак",элитка,65.0,1.0,евроремонт,,,,проводной,1.0,,частично меблирована,,,,раздельный,бронированная,паркинг,106000,42.8819,74.5986,Бишкек,8,12,0,1,1,0,0,0,0,1,1,0,1,0,0,0,кирпичный,
агент,3,"Бишкек, Военторг, Токтогула Логвиненко",индивид. планировка,70.0,1.0,евроремонт,,,,проводной,1.0,1.0,полностью меблирована,,,,раздельный,бронированная,паркинг,137000,42.8723,74.599,Бишкек,3,5,0,1,1,0,0,0,0,0,1,0,1,0,0,0,кирпичный,
агент,2,"Бишкек, Молодая Гвардия",индивид. планировка,45.0,1.0,хорошее,,,,проводной,1.0,1.0,пустая,,,,раздельный,бронированная,,72300,42.8736,74.5773,Бишкек,2,5,0,0,0,0,0,0,0,0,1,0,1,0,0,0,кирпичный,
агент,2,"Бишкек, Восток-5 м-н",элитка,70.0,1.0,евроремонт,,,,проводной,1.0,,,,,,раздельный,бронированная,,93000,42.8725,74.6315,Бишкек,4,12,0,1,0,0,0,0,0,0,1,0,0,1,0,0,кирпичный,2021
агент,2,"Бишкек, Филармония",элитка,58.0,1.0,евроремонт,,,,проводной,,,частично меблирована,,,,,бронированная,,90000,42.8796,74.5856,Бишкек,4,12,0,1,0,0,0,0,0,0,0,0,1,0,0,0,кирпичный,2020
агент,2,"Бишкек, Восток-5 м-н",индивид. планировка,60.0,1.0,хорошее,,,,проводной,1.0,1.0,,,,,раздельный,бронированная,,83000,42.8748,74.6267,Бишкек,3,5,0,1,0,0,0,0,0,0,0,1,0,0,0,0,кирпичный,
агент,2,"Бишкек, Академия Наук",элитка,80.0,1.0,евроремонт,,,рассмотрю варианты,проводной,1.0,1.0,частично меблирована,,,,раздельный,бронированная,,110000,42.8794,74.5817,Бишкек,12,12,0,1,1,0,0,0,0,1,1,0,1,0,0,0,кирпичный,2022
агент,2,"Бишкек, Московская - Уметалиева",индивид. планировка,74.0,1.0,хорошее,,,,проводной,1.0,1.0,частично меблирована,,,,раздельный,бронированная,,87700,42.8731,74.581,Бишкек,2,5,0,0,0,0,0,0,0,0,0,0,0,0,0,0,кирпичный,
собственник,2,"Бишкек, Золотой квадрат, Панфилова/Московская",индивид. планировка,74.0,1.0,под самоотделку (псо),0.0,0.0,обмен не предлагать,,1.0,1.0,пустая,,3.0,,раздельный,металлическая,паркинг,94900,42.8694,74.6002,Бишкек,8,10,0,1,0,0,0,0,0,0,1,0,1,0,0,0,кирпичный,2024
агент,3,"Бишкек, Магистраль, просп. Ч. Айтматова 299/3",элитка,127.0,1.0,под самоотделку (псо),0.0,0.0,,,1.0,1.0,пустая,,3.4,,2 с/у и более,металлическая,рядом охраняемая стоянка,255000,42.825,74.5839,Бишкек,2,8,1,1,1,0,0,0,1,1,0,0,1,0,0,0,монолитный,2022
собственник,3,"Бишкек, Кара Дарыя, Ахунбаева/Крапоткина.",элитка,80.0,1.0,евроремонт,0.0,0.0,обмен не предлагать,проводной,1.0,1.0,частично меблирована,ламинат,3.0,,раздельный,металлическая,,104000,42.8416,74.6265,Бишкек,6,12,1,1,1,0,0,0,0,0,1,0,1,0,0,0,кирпичный,2022
агент,2,"Бишкек, Восток-5 м-н",105 серия,52.0,1.0,хорошее,,,,проводной,1.0,1.0,частично меблирована,,,,раздельный,бронированная,,72700,42.8734,74.6317,Бишкек,3,5,0,0,0,0,0,0,0,0,1,0,1,0,0,0,кирпичный,
собственник,3,"Бишкек, Кок-Жар ж/м, Кок-Жар (Куйручук/ Тон)",элитка,75.0,1.0,не достроено,1.0,0.0,,,1.0,1.0,,,,,,,,71250,42.8518,74.6407,Бишкек,9,10,0,0,0,0,0,0,0,0,0,0,0,0,0,0,монолитный,2025
агент,3,"Бишкек, Филармония, Абдумомунова 290",элитка,96.0,1.0,под самоотделку (псо),0.0,0.0,обмен не предлагать,,1.0,,пустая,,3.1,,2 с/у и более,металлическая,,163200,42.8802,74.5898,Бишкек,10,14,0,1,1,0,0,0,0,0,0,0,0,0,1,0,кирпичный,2024
агент,3,"Бишкек, 4 м-н",104 серия,58.0,1.0,среднее,0.0,,,,1.0,,,,,,совмещенный,,,70000,42.8389,74.6231,Бишкек,1,4,0,0,0,0,0,0,0,0,0,0,0,0,0,0,панельный,
агент,3,"Бишкек, Восток-5 м-н",105 серия,65.0,1.0,хорошее,0.0,,,,1.0,1.0,полностью меблирована,,,,раздельный,металлическая,паркинг,86000,42.8726,74.6344,Бишкек,1,5,1,0,0,1,0,0,0,0,1,0,1,0,0,0,панельный,1983
агент,3,"Бишкек, 7 м-н, 7 мкр., ул. Юнусалиева",элитка,116.0,1.0,под самоотделку (псо),0.0,0.0,,,1.0,1.0,пустая,,3.3,,2 с/у и более,бронированная,,186000,42.829,74.6218,Бишкек,11,15,1,1,1,0,1,0,1,1,0,0,0,0,1,0,монолитный,2022
агент,2,"Бишкек, КНУ, Абдымомунова 255",элитка,81.0,1.0,под самоотделку (псо),0.0,0.0,обмен не предлагать,,1.0,1.0,пустая,,3.0,,2 с/у и более,металлическая,,87480,42.8805,74.5908,Бишкек,9,12,0,0,0,0,0,0,0,0,0,0,0,0,0,0,монолитный,2023
агент,3,"Бишкек, Джал 15 м-н, Ахунбаева/Тыналиева",элитка,88.0,1.0,евроремонт,,,,проводной,1.0,1.0,,ламинат,3.0,,раздельный,бронированная,рядом охраняемая стоянка,108000,42.8451,74.5654,Бишкек,2,14,0,1,0,0,0,0,0,1,0,0,0,0,0,0,монолитный,2023
агент,3,"Бишкек, Джал 15 м-н, Ахунбаева/Тыналиева",элитка,88.0,1.0,евроремонт,,,,проводной,1.0,1.0,,ламинат,3.0,,раздельный,бронированная,рядом охраняемая стоянка,108000,42.8451,74.5654,Бишкек,2,14,0,1,0,0,0,0,0,1,0,0,0,0,0,0,монолитный,2023
агент,3,"Бишкек, Джал 15 м-н, Ахунбаева/Тыналиева",элитка,100.0,1.0,евроремонт,,,,проводной,1.0,1.0,,,3.0,,,бронированная,рядом охраняемая стоянка,123000,42.8451,74.5654,Бишкек,13,14,0,0,0,0,0,0,0,0,0,0,0,0,0,0,монолитный,2023
собственник,1,"Бишкек, Восток-5 м-н 23/алматинская",105 серия,39.0,1.0,среднее,,1.0,,,1.0,,,,,,,,,49900,42.8689,74.6352,Бишкек,7,9,0,0,0,0,0,0,0,0,1,0,0,0,0,0,панельный,
агент,2,"Бишкек, Бишкек-Парк, Токтогула/Исанова",элитка,74.0,1.0,евроремонт,,,,,,,,,3.0,,,,,123000,42.873,74.5901,Бишкек,11,16,0,1,1,0,0,0,0,0,1,0,1,0,1,0,кирпичный,2020
собственник,1,"Бишкек, Тунгуч м-н, мкр тунгуч 6",106 серия,36.0,1.0,среднее,,1.0,,проводной,1.0,1.0,полностью меблирована,,,1.0,совмещенный,,,47000,42.8541,74.6843,Бишкек,7,9,0,0,0,0,0,0,0,0,1,0,1,0,0,0,панельный,1989
собственник,1,"Бишкек, 6 м-н, 6 мкр-н 3/3/каралаева",элитка,45.0,1.0,не достроено,,,,,1.0,1.0,,,3.2,,,бронированная,,42500,42.824,74.6322,Бишкек,9,14,0,0,0,0,0,0,0,0,0,0,0,0,0,0,кирпичный,
агент,2,"Бишкек, Магистраль, ул. Байтик Баатыра (недалеко от Южных ворот)",элитка,80.0,1.0,евроремонт,,,,,,,полностью меблирована,,3.0,,совмещенный,бронированная,паркинг,140000,42.8158,74.621,Бишкек,5,14,1,1,1,0,0,0,0,0,0,0,1,0,0,0,монолитный,2023
агент,2,"Бишкек, VEFA, Горького/Фатьянова",элитка,87.0,1.0,евроремонт,,1.0,,проводной,,1.0,частично меблирована,,3.0,1.0,раздельный,металлическая,рядом охраняемая стоянка,106000,42.8562,74.6059,Бишкек,7,12,0,0,0,0,0,0,0,0,1,0,1,0,0,0,монолитный,2017
агент,2,"Бишкек, Гагарина, Джал, ул. Курчатова 81",элитка,71.0,,евроремонт,,,,,,,,,3.3,,раздельный,,,83000,42.8469,74.5613,Бишкек,12,13,0,0,0,0,0,0,0,0,0,0,0,0,0,0,монолитный,2023
агент,3,"Бишкек, 11 м-н",106 серия,64.0,1.0,евроремонт,,1.0,,оптика,1.0,1.0,частично меблирована,ламинат,2.0,,раздельный,бронированная,рядом охраняемая стоянка,95000,42.8202,74.6311,Бишкек,1,9,1,1,0,1,0,0,0,0,1,0,1,0,0,0,панельный,
агент,3,"Бишкек, Асанбай м-н",элитка,122.0,1.0,евроремонт,,1.0,,проводной,1.0,1.0,частично меблирована,,3.0,1.0,раздельный,бронированная,рядом охраняемая стоянка,230000,42.8186,74.6248,Бишкек,11,13,0,0,0,0,0,0,0,0,0,0,1,0,0,0,кирпичный,2016
агент,3,"Бишкек, Магистраль, Куттубаева 1/Южн. Магистраль",элитка,97.0,1.0,евроремонт,,,,проводной,1.0,1.0,полностью меблирована,ламинат,3.0,0.0,раздельный,металлическая,,123000,42.8113,74.6221,Бишкек,9,10,0,0,0,0,0,0,0,0,0,0,0,0,0,0,монолитный,2023
агент,2,"Бишкек, Арча-Бешик ж/м",индивид. планировка,70.0,1.0,евроремонт,,,,проводной,1.0,,полностью меблирована,ламинат,3.0,0.0,раздельный,металлическая,рядом охраняемая стоянка,78000,42.8317,74.5561,Бишкек,4,6,1,1,1,0,0,0,0,0,0,0,1,0,1,0,кирпичный,2023
агент,2,"Бишкек, Московская - Белинка, Боконбаева/Исанова",элитка,82.0,1.0,хорошее,,1.0,,проводной,1.0,1.0,полностью меблирована,,3.0,1.0,раздельный,металлическая,рядом охраняемая стоянка,112000,42.8675,74.5904,Бишкек,7,9,1,1,0,0,0,0,0,0,1,0,1,0,0,0,панельный,2016
агент,2,"Бишкек, Московская - Белинка, Исанова/Боконбаева",индивид. планировка,52.0,1.0,хорошее,,1.0,,проводной,,,полностью меблирована,,,,совмещенный,,рядом охраняемая стоянка,80000,42.8678,74.5907,Бишкек,4,5,0,0,0,0,0,0,0,0,1,0,1,0,0,0,кирпичный,
агент,3,"Бишкек, Юг-2 м-н",индивид. планировка,85.0,1.0,хорошее,,1.0,,проводной,1.0,1.0,полностью меблирована,ламинат,3.0,0.0,,деревянная,рядом охраняемая стоянка,85000,42.8581,74.6094,Бишкек,8,9,1,1,0,0,0,0,0,0,1,0,1,0,0,0,кирпичный,
агент,1,"Бишкек, 5 м-н",105 серия,41.0,1.0,евроремонт,,,,,1.0,1.0,,,,1.0,,деревянная,,58000,42.8307,74.6283,Бишкек,2,5,0,0,0,0,0,0,0,0,0,0,0,0,0,0,панельный,
агент,2,"Бишкек, Молодая Гвардия",104 серия,44.0,1.0,хорошее,,,,,,,,,,,,,,65500,42.8731,74.5773,Бишкек,4,5,0,0,0,0,0,0,0,0,0,0,0,0,0,0,панельный,1980
агент,2,"Бишкек, Политех/Ахунбаева/Белинка",хрущевка,48.0,1.0,евроремонт,,,,проводной,1.0,0.0,частично меблирована,ламинат,,,совмещенный,бронированная,рядом охраняемая стоянка,60000,42.8435,74.5857,Бишкек,1,3,0,0,0,0,0,0,0,0,0,0,0,0,0,0,кирпичный,1967
агент,1,"Бишкек, Асанбай м-н",элитка,38.0,1.0,евроремонт,,,,,,,,,,,,бронированная,,56000,42.8189,74.6248,Бишкек,7,10,0,0,0,0,0,0,0,0,0,0,0,0,0,0,кирпичный,
агент,2,"Бишкек, Магистраль, Токомбаева 29/5",элитка,80.0,1.0,евроремонт,,,,,,,,,3.0,,,,,85000,42.8239,74.6134,Бишкек,2,12,0,0,0,0,0,0,0,0,0,0,0,0,0,0,монолитный,2017
агент,1,"Бишкек, Кара-Жыгач ж/м",108 серия,43.0,1.0,евроремонт,,,,,,,,,,,,,,51500,42.8599,74.657,Бишкек,2,10,0,0,0,0,0,0,0,0,0,0,0,0,0,0,панельный,
агент,1,"Бишкек, Горького - Алма-Атинская, 7 апреля 1/1/Горького",элитка,41.0,1.0,под самоотделку (псо),,,,,,,пустая,,3.0,,,,,37000,42.8585,74.6315,Бишкек,3,10,0,1,1,0,0,0,0,0,1,0,0,0,1,0,кирпичный,2024
агент,3,"Бишкек, 7 м-н",элитка,84.0,1.0,хорошее,,,,,,,,,,,,,,105000,42.8281,74.6212,Бишкек,8,10,0,0,0,0,0,0,0,0,0,0,0,0,0,0,монолитный,
агент,2,"Бишкек, Средний Джал м-н, Тыналиева 1/3",элитка,73.0,1.0,евроремонт,,,,,,,,,3.0,,,,,75000,42.838,74.5683,Бишкек,13,13,0,0,0,0,0,0,0,0,0,0,0,0,0,0,монолитный,2017
агент,1,"Бишкек, Асанбай м-н",элитка,40.0,1.0,евроремонт,,,,,,,,,,,,бронированная,,55800,42.8186,74.6248,Бишкек,7,12,0,0,0,0,0,0,0,0,0,0,0,0,0,0,кирпичный,
агент,3,"Бишкек, БГУ",104 серия,58.0,1.0,хорошее,,,,,,,,,,,,,,87000,42.8497,74.5839,Бишкек,1,4,0,0,0,0,0,0,0,0,0,0,0,0,0,0,кирпичный,
агент,2,"Бишкек, 12 м-н, 12 мкр., ул. Токомбаева/Саякбая Каралаева",элитка,47.0,1.0,евроремонт,,,,,,,,,3.0,,,,,75000,42.8128,74.6403,Бишкек,10,13,0,0,0,0,0,0,0,0,0,0,0,0,0,0,монолитный,2023
агент,1,"Бишкек, Политех, Ажыбек-Баатыра 10в",элитка,38.0,1.0,евроремонт,,,,,,,,,3.0,,,,,65000,42.8403,74.5822,Бишкек,11,12,0,0,0,0,0,0,0,0,0,0,0,0,0,0,монолитный,2018
агент,1,"Бишкек, Магистраль, Токомбаева/Куттубаева",элитка,40.18,1.0,евроремонт,,,,,,,,,3.0,,,,,63500,42.8177,74.6152,Бишкек,7,12,0,0,0,0,0,0,0,0,0,0,0,0,0,0,монолитный,2022
агент,3,"Бишкек, Ак Кеме, пр. Ч.Айтматова 97/3 пер. Южная магистраль",элитка,96.0,1.0,евроремонт,,,,,,,,,,,,,,136000,42.8312,74.5835,Бишкек,6,9,0,0,0,0,0,0,0,0,0,0,0,0,0,0,монолитный,2023
агент,1,"Бишкек, Политех, Ажыбек-Баатыра 10в",элитка,38.0,1.0,евроремонт,,,,,,,,,3.0,,,,,64000,42.8403,74.5822,Бишкек,3,12,0,0,0,0,0,0,0,0,0,0,0,0,0,0,монолитный,2018
агент,4,"Бишкек, Академия Наук, Киевская/Турусбекова",элитка,230.0,1.0,евроремонт,,,,,,1.0,полностью меблирована,дерево,,,,,рядом охраняемая стоянка,220000,42.8758,74.5843,Бишкек,7,7,1,1,0,0,0,0,0,0,1,0,1,0,0,0,монолитный,2007
агент,4,"Бишкек, Московская - Уметалиева, Уметалиева/Киевская",элитка,120.0,1.0,евроремонт,,,,,,,полностью меблирована,,3.0,,,,паркинг,230000,42.8749,74.5815,Бишкек,2,14,1,1,1,0,0,0,0,0,0,0,1,0,0,0,монолитный,2018
агент,1,"Бишкек, Верхний Джал м-н",106 серия,36.0,1.0,среднее,,,,,,,,,,,,,,55000,42.8346,74.5643,Бишкек,6,9,0,0,0,0,0,0,0,0,1,0,1,0,0,0,панельный,
агент,3,"Бишкек, 12 м-н 69",105 серия,69.0,1.0,среднее,,,,,1.0,1.0,частично меблирована,,,,раздельный,бронированная,рядом охраняемая стоянка,87000,42.813,74.6392,Бишкек,7,9,1,1,0,1,1,0,0,0,0,0,0,0,0,0,панельный,
агент,2,"Бишкек, Джал-23 м-н (Нижний Джал), Ахунбаева 67/1",элитка,58.4,1.0,евроремонт,,,,,,,,,3.0,,,,,79000,42.8434,74.5642,Бишкек,11,11,0,0,0,0,0,0,0,0,0,0,0,0,0,0,монолитный,2017
агент,2,"Бишкек, Баха, Джал-15",элитка,77.0,1.0,евроремонт,,,,,,,,,3.0,,,,,89000,42.8461,74.5623,Бишкек,7,9,0,0,0,0,0,0,0,0,0,0,0,0,0,0,монолитный,2019
агент,2,"Бишкек, Горького - Алма-Атинская, Горького-7-апреля",элитка,52.0,1.0,евроремонт,,,,,,,,,3.0,,,,,56000,42.8566,74.6386,Бишкек,9,16,0,0,0,0,0,0,0,0,0,0,0,0,0,0,монолитный,2023
агент,3,"Бишкек, Золотой квадрат, Чуйкова/Панфилова",элитка,118.0,1.0,под самоотделку (псо),,,,,,,,,3.0,,,,,125000,42.8712,74.6041,Бишкек,3,12,0,0,0,0,0,0,0,0,0,0,0,0,0,0,монолитный,2021
агент,2,"Бишкек, Магистраль, Ч. Айтматова/Масалиева",108 серия,80.0,1.0,евроремонт,,,,,,,,,2.8,,,,,95000,42.8249,74.591,Бишкек,8,9,0,0,0,0,0,0,0,0,0,0,0,0,0,0,монолитный,2022
агент,3,"Бишкек, Кок-Жар ж/м, 7 Апреля",элитка,69.5,1.0,евроремонт,,,,,,,,,3.0,,,,,93500,42.8453,74.6357,Бишкек,9,9,0,0,0,0,0,0,0,0,0,0,0,0,0,0,монолитный,2020
агент,1,"Бишкек, Магистраль, Ч. Айтматова/Масалиева",108 серия,51.0,1.0,евроремонт,,,,,,1.0,частично меблирована,ламинат,2.8,,,,паркинг,63000,42.8249,74.591,Бишкек,4,9,0,0,0,0,0,0,0,0,0,0,0,0,0,0,монолитный,2022
агент,1,"Бишкек, Матросова, Суванбердиева 110",элитка,43.0,1.0,евроремонт,,,,,,,,,3.0,,,,,58000,42.8485,74.6173,Бишкек,5,12,0,0,0,0,0,0,0,0,0,0,0,0,0,0,монолитный,2023
агент,2,"Бишкек, Баха",элитка,54.0,1.0,евроремонт,,,,,,,,,,,,,,59000,42.8465,74.564,Бишкек,8,12,0,0,0,0,0,0,0,0,0,0,0,0,0,0,монолитный,
агент,2,"Бишкек, Магистраль, Ч. Айтматова 7/Масалиева",108 серия,65.0,1.0,евроремонт,,,,,,1.0,,паркет,2.8,,,,рядом охраняемая стоянка,74900,42.8249,74.591,Бишкек,4,9,1,0,0,0,0,0,0,0,0,0,0,0,0,0,монолитный,2022
агент,3,"Бишкек, Военторг, Манасчы Сагынбая 168",элитка,141.0,,под самоотделку (псо),,,,,,,,,3.2,,,,,148050,42.8716,74.5945,Бишкек,15,16,0,0,0,0,0,0,0,0,0,0,0,0,0,0,монолитный,2025
агент,1,"Бишкек, Баха",элитка,44.0,1.0,евроремонт,,,,,,,,,,,,,,56000,42.8464,74.564,Бишкек,3,10,0,0,0,0,0,0,0,0,0,0,0,0,0,0,монолитный,
агент,2,"Бишкек, Баха",элитка,74.0,1.0,евроремонт,,,,,,,,,,,,,,89000,42.8461,74.5621,Бишкек,9,9,0,0,0,0,0,0,0,0,0,0,0,0,0,0,монолитный,
агент,1,"Бишкек, Джал 15 м-н, Ахунбаева/Тыналиева",элитка,43.0,1.0,евроремонт,,,,,,,,,3.0,,,,,57000,42.8451,74.5654,Бишкек,14,15,0,0,0,0,0,0,0,0,0,0,0,0,0,0,монолитный,2023
агент,5,"Бишкек, Магистраль, просп. Ч. Айтматова 299/3",элитка,182.0,,под самоотделку (псо),,,,,,,,,3.4,,,,,285000,42.825,74.5839,Бишкек,8,8,0,0,0,0,0,0,0,0,0,0,0,0,0,0,монолитный,2022
агент,3,"Бишкек, Военторг",элитка,135.0,,евроремонт,,,,,,,,,,,,,,207000,42.8729,74.5963,Бишкек,3,12,0,0,0,0,0,0,0,0,0,0,0,0,0,0,кирпичный,
агент,2,"Бишкек, Магистраль, Магистраль/Сухэ Батора",элитка,67.11,1.0,под самоотделку (псо),,,,,,,,,3.0,,,,,69800,42.8228,74.6152,Бишкек,14,16,0,0,0,0,0,0,0,0,0,0,0,0,0,0,монолитный,2022
агент,3,"Бишкек, Магистраль, Байтик-Баатыра/А. Токомбаева",элитка,104.14,,под самоотделку (псо),,,,,,,,,3.0,,,,,98933,42.8192,74.6031,Бишкек,13,14,0,0,0,0,0,0,0,0,0,0,0,0,0,0,монолитный,2022
агент,3,"Бишкек, Азия Молл, Ч. Айтматова (пр. Мира) 36",элитка,152.0,1.0,евроремонт,,1.0,,,,,,,3.0,,раздельный,,рядом охраняемая стоянка,156000,42.8545,74.5884,Бишкек,9,10,0,0,0,0,0,0,0,0,0,0,1,0,1,0,монолитный,2018
агент,1,"Бишкек, Магистраль, Сухэ-Батора/Токомбаева",элитка,39.0,1.0,евроремонт,,,,,,,,,3.0,,,,,68500,42.8188,74.6162,Бишкек,3,8,0,0,0,0,0,0,0,0,0,0,0,0,0,0,монолитный,2021
агент,3,"Бишкек, Бишкек-Парк, Киевская 148",элитка,100.0,1.0,евроремонт,,,,проводной,,,,,3.0,1.0,раздельный,,,199000,42.8746,74.5902,Бишкек,8,25,0,0,0,0,0,0,0,0,0,0,1,0,0,0,монолитный,2016
агент,4,"Бишкек, 12 м-н",элитка,123.0,1.0,евроремонт,,1.0,,проводной,1.0,,,ламинат,3.0,1.0,раздельный,,,142000,42.8155,74.6382,Бишкек,11,11,0,0,0,0,0,0,0,0,0,0,0,0,0,0,монолитный,
агент,1,"Бишкек, Магистраль, Куттубаева/Южная Магистраль",элитка,41.5,,евроремонт,,,,,,,,,3.0,,,,,60300,42.8161,74.6228,Бишкек,8,12,0,0,0,0,0,0,0,0,0,0,0,0,0,0,монолитный,2022
агент,3,"Бишкек, Магистраль, Куттубаева/Южн. Магистраль",элитка,97.0,,евроремонт,,,,,,,,,3.0,,,,,122000,42.8113,74.6221,Бишкек,7,10,0,0,0,0,0,0,0,0,0,0,0,0,0,0,монолитный,2023
агент,2,"Бишкек, КНУ, Тимирязева/Жумабека",элитка,68.0,1.0,евроремонт,,,,,,,,,3.0,,,,,86200,42.884,74.581,Бишкек,15,16,0,0,0,0,0,0,0,0,0,0,0,0,0,0,монолитный,2022
агент,2,"Бишкек, Верхний Джал м-н",элитка,80.0,,евроремонт,,,,,,,,,,,,,,97000,42.835,74.5664,Бишкек,9,9,0,0,0,0,0,0,0,0,1,0,1,0,0,0,монолитный,
агент,1,"Бишкек, Магистраль, Куттубаева/Южн. Магистраль",элитка,42.0,,евроремонт,,,,,,,,,3.0,,,,,62000,42.8113,74.6221,Бишкек,8,10,0,0,0,0,0,0,0,0,0,0,0,0,0,0,монолитный,2023
агент,3,"Бишкек, Магистраль, Байтик Баатыра/Южная Магистраль",элитка,138.0,,под самоотделку (псо),,,,,,,,,3.3,,,,,172500,42.8224,74.611,Бишкек,12,14,0,0,0,0,0,0,0,0,0,0,0,0,0,0,монолитный,2022
агент,5,"Бишкек, Церковь, Жибек Жолу/Керимбекова",элитка,182.0,1.0,евроремонт,,,,,1.0,1.0,полностью меблирована,паркет,3.0,,раздельный,бронированная,паркинг,200000,42.8842,74.5951,Бишкек,7,7,1,1,1,0,1,0,0,0,1,0,1,0,0,0,монолитный,
собственник,2,"Бишкек, Кудайберген,  ул. П. Лумумбы 94/Садыгалиева",индивид. планировка,55.0,1.0,хорошее,0.0,1.0,рассмотрю варианты,проводной,1.0,1.0,полностью меблирована,паркет,2.7,0.0,совмещенный,бронированная,рядом охраняемая стоянка,54990,42.8796,74.5191,Бишкек,2,3,0,0,0,0,0,0,0,0,1,0,1,0,0,0,кирпичный,1986
агент,2,"Бишкек, Магистраль, Куттубаева/Южн. Магистраль",элитка,53.0,1.0,евроремонт,,,,,,,,,3.0,,,,,69500,42.8113,74.6221,Бишкек,2,10,0,0,0,0,0,0,0,0,0,0,0,0,0,0,монолитный,2023
агент,4,"Бишкек, Магистраль, Сухэ-Батора/Токомбаева",элитка,147.0,1.0,под самоотделку (псо),,,,,,,,,3.0,,,,,176400,42.8195,74.6155,Бишкек,6,12,0,0,0,0,0,0,0,0,0,0,0,0,0,0,монолитный,2019
агент,2,"Бишкек, Джальская больница, Ахунбаева - Тыналиева",элитка,82.45,,евроремонт,,,,,,,,,,,,,,89000,42.8454,74.5698,Бишкек,9,12,0,0,0,0,0,0,0,0,0,0,0,0,0,0,монолитный,2023
агент,2,"Бишкек, Магистраль, Куттубаева/Южн. Магистраль",элитка,72.0,1.0,евроремонт,,,,,,,,,3.0,,,,,100000,42.8113,74.6221,Бишкек,6,10,0,0,0,0,0,0,0,0,0,0,0,0,0,0,монолитный,2023
агент,3,"Бишкек, Магистраль, Куттубаева/Южн. Магистраль",элитка,97.0,1.0,евроремонт,,,,,,,,,3.0,,,,,122000,42.8113,74.6221,Бишкек,7,10,0,0,0,0,0,0,0,0,0,0,0,0,0,0,монолитный,2023
агент,4,"Бишкек, Магистраль, просп. Айтматова / ул. Масалиева",элитка,180.0,,под самоотделку (псо),,,,,,,,,3.0,,,,,180000,42.8191,74.5857,Бишкек,12,14,0,0,0,0,0,0,0,0,0,0,0,0,0,0,монолитный,2021
агент,4,"Бишкек, Старый аэропорт, Бакаева 132",элитка,113.0,1.0,евроремонт,,,,,,,,,3.0,,,,,137000,42.8419,74.5772,Бишкек,4,9,0,0,0,0,0,0,0,0,1,0,1,0,0,0,монолитный,
агент,4,"Бишкек, Магистраль, Байтик-Баатыра/А. Токомбаева",элитка,154.0,,под самоотделку (псо),,,,,,,,,3.0,,,,,135520,42.8192,74.6031,Бишкек,14,14,0,0,0,0,0,0,0,0,0,0,0,0,0,0,монолитный,2022
агент,3,"Бишкек, 6 м-н, Сухэ-Батора-Юнусалиева",элитка,122.0,,евроремонт,,,,,,,,,,,,,,175000,42.8262,74.6235,Бишкек,11,12,0,0,0,0,0,0,0,0,0,0,0,0,0,0,монолитный,2022
агент,4,"Бишкек, Молодая Гвардия, Рыскулова 95а",элитка,110.0,1.0,евроремонт,,,,,1.0,,частично меблирована,ламинат,3.0,,раздельный,бронированная,паркинг,155000,42.88,74.5746,Бишкек,8,12,1,1,1,1,1,0,0,0,1,0,1,0,0,0,монолитный,
агент,3,"Бишкек, Магистраль, Чынгыза Айтматова/Токомбаева",элитка,150.0,1.0,евроремонт,,,,,,,полностью меблирована,,3.0,,,бронированная,,186000,42.8301,74.5838,Бишкек,6,10,0,0,0,0,0,0,0,0,1,0,1,0,0,0,монолитный,2014
агент,4,"Бишкек, Магистраль, пр. Ч. Айтматова 82/2",элитка,157.0,,под самоотделку (псо),,,,,,,,,3.2,,,,,164850,42.8277,74.586,Бишкек,12,14,0,0,0,0,0,0,0,0,0,0,0,0,0,0,монолитный,2021
агент,1,"Бишкек, Магистраль, Куттубаева/Южная Магистраль",элитка,42.0,,евроремонт,,,,,,,,,3.0,,,,,56500,42.8161,74.6228,Бишкек,8,12,0,0,0,0,0,0,0,0,0,0,0,0,0,0,монолитный,2022
агент,2,"Бишкек, Комфорт",105 серия,60.0,1.0,евроремонт,,,,,,,полностью меблирована,,,,,бронированная,,80800,42.8693,74.6164,Бишкек,2,9,0,0,0,0,0,0,0,0,1,0,1,0,0,0,панельный,
агент,2,"Бишкек, ЖД вокзал, Раззакова/Туголбай ата",элитка,90.0,1.0,евроремонт,,,,,,,полностью меблирована,,3.0,,,,паркинг,120000,42.8644,74.6036,Бишкек,10,10,0,0,0,0,0,0,0,0,1,0,1,0,0,0,монолитный,2016
агент,3,"Бишкек, Магистраль, ДУЙШЕЕВА/МОЛДОБАСАНОВА (НАПРОТИВ ШК.ГАЗПРОМ)",элитка,131.0,1.0,под самоотделку (псо),,,,,,,,,,,,,,131000,42.8166,74.6113,Бишкек,11,14,0,0,0,0,0,0,0,0,0,0,0,0,0,0,монолитный,2026
агент,2,"Бишкек, Ипподром, Гагарина 139/Баха",элитка,68.0,1.0,хорошее,,,,,1.0,,частично меблирована,,2.8,,раздельный,,паркинг,77500,42.8525,74.5555,Бишкек,3,9,1,1,0,0,0,0,0,0,1,0,1,0,0,0,панельный,2019
агент,3,"Бишкек, Ак Кеме, Джунусалиева/Ажыбек Баатыра",элитка,125.0,1.0,под самоотделку (псо),,,,,,,,,3.1,,,,,123750,42.8398,74.583,Бишкек,3,16,0,0,0,0,0,0,0,0,0,0,0,0,0,0,монолитный,2024
агент,2,"Бишкек, Ипподром, Л. Толстого 126 (10/1)",элитка,68.0,,евроремонт,,,,,,,,,3.0,,,,,77000,42.863,74.5556,Бишкек,12,12,0,0,0,0,0,0,0,0,1,0,1,0,0,0,монолитный,2018
агент,2,"Бишкек, Военторг, Токтогула/Тоголок Молдо",элитка,67.0,1.0,евроремонт,,,,,1.0,1.0,полностью меблирована,,3.0,,,бронированная,паркинг,130000,42.8717,74.5932,Бишкек,10,13,1,1,0,1,0,0,0,0,1,0,1,0,0,0,монолитный,2021
агент,3,"Бишкек, Ак Кеме, Джунусалиева/Ажыбек Баатыра",элитка,138.0,1.0,под самоотделку (псо),,,,,,,,,3.1,,,,,126960,42.8398,74.583,Бишкек,5,16,0,0,0,0,0,0,0,0,0,0,0,0,0,0,монолитный,2024
агент,4,"Бишкек, Ак Кеме, Джунусалиева/Ажыбек Баатыра",элитка,160.0,1.0,под самоотделку (псо),,,,,,,,,3.1,,,,,147200,42.8398,74.583,Бишкек,3,16,0,0,0,0,0,0,0,0,1,0,0,0,1,0,монолитный,2024
агент,1,"Бишкек, Магистраль, Ч. Айтматова/Масалиева",108 серия,48.0,1.0,евроремонт,,,,проводной,1.0,1.0,полностью меблирована,ламинат,2.8,,совмещенный,бронированная,рядом охраняемая стоянка,66500,42.8249,74.591,Бишкек,9,9,0,0,0,0,0,0,0,0,0,0,1,0,1,0,монолитный,2022
агент,2,"Бишкек, Московская - Белинка, Московская/Исанова",сталинка,50.0,1.0,евроремонт,,,,,,,,,3.0,,,,,84000,42.8696,74.5908,Бишкек,1,3,0,0,0,0,0,0,0,0,1,0,1,0,0,0,кирпичный,
агент,3,"Бишкек, Золотой квадрат, Разакова 15",элитка,200.0,1.0,евроремонт,,,,,,,,,,,,,,330000,42.8681,74.6043,Бишкек,9,11,0,0,0,0,0,0,0,0,0,0,0,0,0,0,кирпичный,
агент,4,"Бишкек, VEFA, Горького 128",элитка,145.0,1.0,евроремонт,,,,,,,,,,,,,,164000,42.8568,74.6096,Бишкек,9,12,0,0,0,0,0,0,0,0,0,0,0,0,0,0,кирпичный,
агент,2,"Бишкек, Магистраль, Ч. Айтматова/Масалиева",108 серия,56.0,1.0,евроремонт,,,,,1.0,,,,2.8,,совмещенный,,,74300,42.8249,74.591,Бишкек,3,9,0,0,0,0,0,0,0,0,0,0,1,0,0,0,монолитный,2022
агент,1,"Бишкек, Магистраль, Ч. Айтматова/Масалиева",108 серия,45.0,1.0,хорошее,,,,проводной,1.0,1.0,пустая,ламинат,2.8,,совмещенный,бронированная,паркинг,60500,42.8249,74.591,Бишкек,8,9,0,0,0,0,0,0,0,0,1,0,1,0,0,0,монолитный,2022
агент,1,"Бишкек, БГУ, Гагарина/джунусалиева",105 серия,45.0,1.0,среднее,,,,проводной,1.0,1.0,частично меблирована,ламинат,,,совмещенный,бронированная,рядом охраняемая стоянка,56500,42.8504,74.5817,Бишкек,5,5,0,0,0,0,0,0,0,0,0,0,0,0,0,0,панельный,
агент,3,"Бишкек, Магистраль, Байтик Баатыра/Токомбаева",элитка,97.27,1.0,под самоотделку (псо),,,,,,,,,3.0,,,,,97270,42.818,74.6088,Бишкек,12,16,0,0,0,0,0,0,0,0,0,0,0,0,0,0,монолитный,2024
агент,3,"Бишкек, Восток-5 м-н",элитка,98.0,1.0,под самоотделку (псо),,,,,,,,,,,,,,112000,42.8727,74.6336,Бишкек,4,12,0,0,0,0,0,0,0,0,0,0,0,0,0,0,кирпичный,
агент,1,"Бишкек, 7 м-н",105 серия,44.0,1.0,хорошее,,,,,,,,,,,,бронированная,,53900,42.8316,74.6217,Бишкек,6,12,0,0,0,0,0,0,0,0,0,0,1,0,0,0,панельный,
агент,3,"Бишкек, Магистраль, Сухэ-Батора/Токомбаева",элитка,108.0,1.0,под самоотделку (псо),,,,,,,,,3.0,,,,,118800,42.8195,74.6155,Бишкек,12,12,0,0,0,0,0,0,0,0,0,0,0,0,0,0,монолитный,2019
собственник,1,"Бишкек, Сквер Тоголок Молдо, Манасчы Сагынбая 168",элитка,41.0,1.0,под самоотделку (псо),,,рассмотрю варианты,оптика,1.0,1.0,,,3.2,1.0,раздельный,бронированная,паркинг,52000,42.8713,74.5939,Бишкек,13,16,1,1,1,0,1,1,1,1,1,0,1,1,1,0,монолитный,2024
агент,1,"Бишкек, Тунгуч м-н",элитка,45.0,1.0,евроремонт,,,,,,,,,,,совмещенный,,,57000,42.8535,74.6884,Бишкек,13,14,0,0,0,0,0,0,0,0,0,0,0,0,0,0,кирпичный,
собственник,3,"Бишкек, Восточный автовокзал, Осмонкула 299 299",индивид. планировка,64.0,1.0,хорошее,,1.0,рассмотрю варианты,оптика,1.0,1.0,полностью меблирована,линолеум,2.8,1.0,раздельный,бронированная,гараж,57000,42.8932,74.6272,Бишкек,2,2,0,0,0,0,1,0,0,0,1,0,1,0,1,0,кирпичный,
агент,1,"Бишкек, Горького - Алма-Атинская, Горького-7-апреля",106 серия,43.0,1.0,евроремонт,,,,,,,,,,,,,,51000,42.8566,74.6386,Бишкек,2,10,0,0,0,0,0,0,0,0,0,0,1,0,1,0,монолитный,2021
собственник,1,"Бишкек Ленинский район,  ул. Барпы Алыкулова/Южная Магистраль 13",элитка,40.25,1.0,не достроено,,,,,,,,,,,,,,32000,42.8236,74.5127,Бишкек,11,14,0,0,0,0,0,0,0,0,0,0,0,0,0,0,монолитный,2026
агент,4,"Бишкек, ЖД вокзал, Орозбекова 1",элитка,146.0,1.0,евроремонт,,1.0,,проводной,1.0,1.0,полностью меблирована,паркет,3.0,1.0,2 с/у и более,бронированная,рядом охраняемая стоянка,220000,42.865,74.6023,Бишкек,6,10,1,1,1,0,1,1,0,1,1,0,1,1,1,0,монолитный,2016
собственник,3,"Бишкек, 6 м-н, Айтиева",104 серия,58.0,1.0,евроремонт,0.0,,,проводной,1.0,1.0,частично меблирована,ламинат,2.6,1.0,совмещенный,бронированная,,88500,42.8215,74.6236,Бишкек,3,4,1,0,0,0,0,0,0,0,1,0,0,0,0,0,панельный,1970
собственник,3,"Бишкек, Московская - Белинка",элитка,92.0,1.0,евроремонт,,1.0,,проводной,1.0,1.0,частично меблирована,ламинат,,,раздельный,металлическая,паркинг,130000,42.8675,74.5904,Бишкек,7,9,1,1,0,0,0,0,0,0,0,0,0,0,0,0,монолитный,
собственник,3,"Бишкек, Магистраль, Аалы Токомбаева",элитка,124.0,1.0,евроремонт,,,,проводной,,1.0,частично меблирована,ламинат,,,раздельный,металлическая,паркинг,131000,42.8177,74.622,Бишкек,12,13,0,1,1,0,0,0,0,0,0,0,0,0,0,0,монолитный,2021
собственник,2,"Бишкек, Магистраль, А.Токомбаева/А.Куттубаева",элитка,61.0,1.0,под самоотделку (псо),,,обмен не предлагать,adsl,1.0,0.0,пустая,пробковое,3.0,1.0,раздельный,нет,паркинг,52000,42.8157,74.6234,Бишкек,13,14,1,1,1,0,1,0,1,0,0,0,0,0,1,0,монолитный,2024
собственник,2,"Бишкек, Джальская больница,  ул. Айни 95",элитка,64.0,1.0,под самоотделку (псо),,,обмен не предлагать,adsl,1.0,1.0,пустая,пробковое,3.0,1.0,раздельный,бронированная,паркинг,67200,42.8489,74.5704,Бишкек,6,12,1,1,1,0,0,1,0,0,0,0,0,0,1,0,монолитный,2023
агент,4,"Бишкек, 7 м-н, 7 мкр. дом 16/1 (Юнусалиева / Сухэ Батора)",элитка,135.0,1.0,под самоотделку (псо),0.0,0.0,обмен не предлагать,adsl,1.0,1.0,пустая,пробковое,3.3,1.0,раздельный,бронированная,паркинг,127000,42.8282,74.619,Бишкек,3,15,1,1,1,0,1,1,1,1,0,0,0,0,1,0,монолитный,2024
собственник,5,"Бишкек, Советская - Скрябина, Советская 17/2/Медерова",элитка,268.0,1.0,хорошее,0.0,0.0,обмен не предлагать,adsl,1.0,1.0,частично меблирована,ламинат,3.0,1.0,раздельный,бронированная,паркинг,279000,42.8507,74.6101,Бишкек,7,10,1,1,1,0,1,1,0,0,1,0,1,1,1,0,кирпичный,2015
агент,2,"Бишкек, Джальская больница, Ахунбаева - Тыналиева",элитка,86.0,1.0,евроремонт,0.0,0.0,обмен не предлагать,adsl,1.0,1.0,пустая,ламинат,3.0,1.0,раздельный,бронированная,паркинг,79120,42.8454,74.5698,Бишкек,9,12,1,1,1,0,0,1,0,0,0,0,0,0,1,0,монолитный,2025
агент,3,"Бишкек, Джальская больница,  ул. Айни 95",элитка,83.0,1.0,под самоотделку (псо),0.0,0.0,обмен не предлагать,adsl,1.0,1.0,пустая,пробковое,3.0,1.0,раздельный,бронированная,паркинг,93000,42.8489,74.5704,Бишкек,5,12,1,1,1,0,1,1,0,0,0,0,0,0,1,0,монолитный,2023
собственник,4,"Бишкек, Джальская больница,  ул. Айни 95",элитка,128.0,1.0,под самоотделку (псо),,,обмен не предлагать,adsl,1.0,1.0,пустая,,3.0,1.0,раздельный,бронированная,паркинг,109000,42.8485,74.5702,Бишкек,9,10,1,1,1,0,0,1,0,0,0,0,0,0,1,0,монолитный,2023
собственник,3,"Бишкек, Магистраль, Южная Магистраль/Малдыбаева",элитка,130.0,1.0,под самоотделку (псо),1.0,,обмен не предлагать,adsl,1.0,1.0,пустая,пробковое,3.4,1.0,раздельный,бронированная,паркинг,214500,42.8249,74.5976,Бишкек,11,15,1,1,1,0,1,1,1,1,0,0,0,0,1,0,кирпичный,2024
собственник,3,"Бишкек, Верхний Джал м-н, Тыналиева 7/Тыналиева 1а",элитка,91.0,1.0,евроремонт,0.0,1.0,обмен не предлагать,adsl,1.0,1.0,частично меблирована,ламинат,3.0,1.0,раздельный,бронированная,паркинг,121000,42.8335,74.5687,Бишкек,4,9,1,1,0,1,1,1,0,0,1,0,1,1,1,0,монолитный,2015
собственник,3,"Бишкек, Магистраль, Байтик Баатыра/Южная Магистраль",элитка,139.0,1.0,под самоотделку (псо),,,обмен не предлагать,adsl,1.0,1.0,,пробковое,3.3,1.0,раздельный,бронированная,паркинг,179310,42.8224,74.611,Бишкек,12,14,1,1,1,0,1,1,1,1,0,0,0,0,1,0,монолитный,2022
собственник,2,"Бишкек, Магистраль, Малдыбаева 279",элитка,68.0,1.0,под самоотделку (псо),,,обмен не предлагать,adsl,1.0,1.0,пустая,пробковое,3.2,1.0,раздельный,бронированная,паркинг,88500,42.8248,74.5976,Бишкек,10,13,1,1,1,1,1,1,1,1,0,0,0,0,1,0,монолитный,2022
собственник,3,"Бишкек, Госрегистр, Л.Толстого и пр. Чынгыза Айтматова",элитка,112.0,1.0,под самоотделку (псо),,,обмен не предлагать,adsl,1.0,1.0,пустая,пробковое,3.4,1.0,раздельный,бронированная,паркинг,98000,42.8644,74.5878,Бишкек,19,20,1,1,1,1,1,1,1,1,0,0,0,0,1,0,монолитный,2024
собственник,2,"Бишкек, Алматинка - Магистраль, 12 мкр, ул. А. Токомбаева/Саякбай Каралаев",элитка,88.0,1.0,под самоотделку (псо),0.0,0.0,обмен не предлагать,adsl,1.0,1.0,пустая,пробковое,3.0,1.0,раздельный,бронированная,паркинг,73040,42.8112,74.6409,Бишкек,12,13,1,1,1,1,1,1,1,1,0,0,0,0,1,0,монолитный,2024
агент,1,"Бишкек, Магистраль, Куттубаева 15/4/Южная Магистраль",элитка,36.0,1.0,под самоотделку (псо),,,,,,,,,3.0,,,,,37800,42.8154,74.6217,Бишкек,13,13,0,0,0,0,0,0,0,0,0,0,0,0,0,0,монолитный,2022
агент,2,"Бишкек, Учкун ж/м, Ауэзова 6/1",элитка,28.0,1.0,евроремонт,,,,,,,,,3.0,,,,,39900,42.8702,74.6912,Бишкек,4,10,0,0,0,0,0,0,0,0,0,0,1,0,0,0,монолитный,2017
агент,1,"Бишкек, Госрегистр, Л.Толстого и пр. Чынгыза Айтматова",элитка,42.92,1.0,под самоотделку (псо),,,,,,,,,,,,,,47212,42.8644,74.5878,Бишкек,10,20,0,0,0,0,0,0,0,0,0,0,0,0,1,0,монолитный,2025
собственник,3,"Бишкек, Асанбай м-н, Токомбаева/Куттубаева",элитка,73.2,1.0,под самоотделку (псо),,,,,,1.0,,,3.0,,2 с/у и более,бронированная,,88000,42.8176,74.6247,Бишкек,8,12,0,0,0,0,0,0,0,0,0,0,0,0,0,0,монолитный,2022
агент,1,"Бишкек, Госрегистр, Л.Толстого и пр. Чынгыза Айтматова",элитка,40.32,1.0,под самоотделку (псо),,,,,,,,,,,,,,44352,42.8644,74.5878,Бишкек,8,20,0,0,0,0,0,0,0,0,0,0,0,0,1,0,монолитный,2025
агент,3,"Бишкек, Магистраль, Сухе Батора/Южная Магистраль",элитка,109.0,1.0,под самоотделку (псо),,,,,,,,,3.1,,раздельный,,,98100,42.8223,74.6161,Бишкек,5,12,0,0,0,0,0,0,0,0,0,0,0,0,1,0,монолитный,2024
собственник,4,"Бишкек, Сквер Тоголок Молдо, Московская 154/Исанова",сталинка,84.0,1.0,евроремонт,,,,,1.0,,,паркет,,1.0,,металлическая,,136000,42.8698,74.5914,Бишкек,3,3,0,0,0,1,0,0,0,0,1,0,1,0,0,0,кирпичный,
агент,3,"Бишкек, Магистраль, Байтик-Баатыра/А. Токомбаева",элитка,104.0,,под самоотделку (псо),,,,,,,,,3.0,,,бронированная,,95680,42.8192,74.6031,Бишкек,13,14,0,0,0,0,0,0,0,0,0,0,0,0,1,0,монолитный,2024
агент,3,"Бишкек, Магистраль, Сухе Батора/Южная Магистраль",элитка,108.0,1.0,под самоотделку (псо),,,,,,,,,3.1,,раздельный,,,108000,42.8223,74.6161,Бишкек,10,12,0,0,0,0,0,0,0,0,0,0,0,0,1,0,монолитный,2024
агент,3,"Бишкек, Магистраль, Сухе Батора/Южная Магистраль",элитка,104.0,1.0,под самоотделку (псо),,,,,,,,,3.1,,раздельный,,,85280,42.8223,74.6161,Бишкек,4,12,0,0,0,0,0,0,0,0,0,0,0,0,1,0,монолитный,2024
агент,1,"Бишкек, 12 м-н",106 серия,39.0,,хорошее,,,обмен не предлагать,,1.0,1.0,частично меблирована,,,,,,,57000,42.8135,74.6368,Бишкек,7,9,0,0,0,0,0,0,0,0,1,0,1,0,0,0,панельный,1991
агент,2,"Бишкек, Магистраль, Байтик-Баатыра/А. Токомбаева",элитка,79.0,,под самоотделку (псо),,,,,,,,,3.0,,,бронированная,,79000,42.8192,74.6031,Бишкек,9,14,0,0,0,0,0,0,0,0,0,0,0,0,1,0,монолитный,2022
агент,2,"Бишкек, Ошский рынок, Рыскулова 110",элитка,80.0,,под самоотделку (псо),,,,,,,,,3.0,,,бронированная,,58400,42.8796,74.5667,Бишкек,2,12,0,0,0,0,0,0,0,0,0,0,0,0,1,0,монолитный,2024
агент,4,"Бишкек, Магистраль,  ул. Токомбаева/Куттубаева",элитка,137.0,1.0,под самоотделку (псо),,,обмен не предлагать,,1.0,,,,,,2 с/у и более,металлическая,,190000,42.8167,74.6245,Бишкек,2,18,0,0,0,0,0,0,0,0,0,0,0,0,1,0,монолитный,2025
агент,3,"Бишкек, Магистраль,  ул. Токомбаева/Куттубаева",элитка,137.0,1.0,под самоотделку (псо),,,обмен не предлагать,,1.0,1.0,,,3.3,,2 с/у и более,,,190000,42.8167,74.6245,Бишкек,7,18,0,0,0,0,0,0,0,0,0,0,0,0,1,0,монолитный,2025
агент,3,"Бишкек, Магистраль, Байтик Баатыра/Токомбаева",элитка,90.0,,под самоотделку (псо),,,,,,,,,3.0,,раздельный,,,81000,42.818,74.6088,Бишкек,13,16,0,0,0,0,0,0,0,0,0,0,0,0,0,0,монолитный,2024
агент,2,"Бишкек, Военторг, Тоголок Молдо/Токтогула",элитка,64.0,1.0,евроремонт,,,,,,,,,3.1,,,,,120000,42.8726,74.596,Бишкек,11,14,0,0,0,0,0,0,0,0,1,0,1,1,1,0,кирпичный,2021
агент,3,"Бишкек, Рабочий Городок,  ул.Льва Толстого/Садырбаева",элитка,87.0,1.0,евроремонт,,,,,,,,,2.8,,раздельный,,,60900,42.8653,74.569,Бишкек,6,15,0,0,0,0,0,0,0,0,0,0,0,0,1,0,монолитный,
агент,1,"Бишкек, Магистраль, Асанбай, Сухэ-Батора",элитка,48.0,,евроремонт,,,,,,,,,3.3,,,бронированная,,85000,42.8189,74.6133,Бишкек,4,16,0,0,0,0,0,0,0,0,0,0,0,0,1,0,монолитный,2022
агент,2,"Бишкек, Магистраль, Токомбаева-Сухэ-батора",элитка,85.0,,под самоотделку (псо),,,,,,,,,,,раздельный,,,119000,42.8191,74.6129,Бишкек,8,18,0,0,0,0,0,0,0,0,0,0,0,0,1,0,монолитный,2024
агент,1,"Бишкек, АЮ Grand,  ул. Анкара 1/34",элитка,43.0,1.0,евроремонт,,,,,1.0,1.0,,,2.7,,,,,55000,42.8558,74.688,Бишкек,1,7,0,0,0,0,0,0,0,0,1,0,1,0,1,0,монолитный,2023
агент,3,"Бишкек, Магистраль,  ул. А. Малдыбаева 277 (пер. ул. А. Масалиева)",элитка,90.0,,под самоотделку (псо),,,,,,,,,,,раздельный,,,87300,42.825,74.5974,Бишкек,5,20,0,0,0,0,0,0,0,0,0,0,0,0,1,0,монолитный,2025
агент,2,"Бишкек, Парк Ататюрк, Малдыбаева 54а",элитка,67.0,1.0,евроремонт,,1.0,обмен не предлагать,,1.0,1.0,частично меблирована,,3.0,,раздельный,металлическая,,112000,42.8405,74.5995,Бишкек,2,10,0,0,0,0,0,0,0,0,0,0,0,0,0,0,монолитный,2015
агент,2,"Бишкек, Магистраль, Асанбай, Сухэ-Батора",элитка,47.0,,евроремонт,,,,,,,полностью меблирована,,3.3,,,бронированная,,85000,42.8189,74.6133,Бишкек,4,16,0,0,0,0,0,0,0,0,0,0,0,0,1,0,монолитный,2023
агент,2,"Бишкек, Кок-Жар м-н",элитка,77.0,1.0,евроремонт,,,,,1.0,1.0,частично меблирована,,,,раздельный,,,110000,42.8511,74.6313,Бишкек,8,12,0,0,0,0,0,0,0,0,0,0,0,0,0,0,кирпичный,
агент,1,"Бишкек, Магистраль, Ч. Айтматова/Масалиева",108 серия,53.0,1.0,евроремонт,,,обмен не предлагать,,1.0,1.0,,,2.8,,совмещенный,,,66000,42.8231,74.5901,Бишкек,9,9,0,0,0,0,0,0,0,0,0,0,0,0,0,0,монолитный,2023
агент,3,"Бишкек, 6 м-н",элитка,112.0,1.0,под самоотделку (псо),,,,,,,,,,,раздельный,,,95200,42.8203,74.626,Бишкек,6,14,0,0,0,0,0,0,0,0,0,0,0,0,1,0,кирпичный,
агент,3,"Бишкек, Военторг, Сыдыкова 141",элитка,140.0,1.0,евроремонт,,,,,1.0,,частично меблирована,,3.2,,раздельный,,,310000,42.874,74.5932,Бишкек,7,15,0,0,0,0,0,0,0,0,1,0,1,0,1,0,монолитный,2018
агент,4,"Бишкек, Академия Наук, Уметалиева 113/Рыскулова 34",элитка,130.0,1.0,евроремонт,0.0,1.0,обмен не предлагать,,1.0,,,,3.0,,2 с/у и более,,,199000,42.8792,74.582,Бишкек,5,10,0,0,0,0,0,0,0,0,1,0,1,0,1,0,монолитный,2015
агент,3,"Бишкек, Московская - Уметалиева",элитка,133.0,1.0,евроремонт,,,,проводной,1.0,1.0,полностью меблирована,ламинат,3.0,0.0,раздельный,металлическая,паркинг,152950,42.8713,74.5823,Бишкек,2,12,1,0,0,1,0,0,0,0,1,0,1,1,1,0,кирпичный,2019
агент,3,"Бишкек, КНУ, Уметалиева/Жумабека",элитка,110.0,1.0,евроремонт,,,,,,,,,3.0,,,,,133900,42.8835,74.5817,Бишкек,8,12,0,0,0,0,0,0,0,0,0,0,0,0,0,0,монолитный,2020
агент,1,"Бишкек, Пишпек ж/м, Льва Толстого/Кривоносова",индивид. планировка,28.0,1.0,хорошее,,,,,,,,,,,,,,38000,42.864,74.5451,Бишкек,2,2,0,0,0,0,0,0,0,0,0,0,0,0,0,0,кирпичный,
агент,3,"Бишкек, Госрегистр, Л.Толстого и пр. Чынгыза Айтматова",элитка,112.0,1.0,под самоотделку (псо),,,,,,,,,,,раздельный,,,112000,42.8644,74.5878,Бишкек,15,20,0,0,0,0,0,0,0,0,0,0,0,0,0,0,монолитный,2024
агент,1,"Бишкек, Ошский рынок, Рыскулова 110",элитка,39.0,,под самоотделку (псо),,,,,,,,,3.0,,,бронированная,,30000,42.8796,74.5667,Бишкек,12,12,0,0,0,0,0,0,0,0,0,0,0,0,1,0,монолитный,2024
агент,1,"Бишкек, Магистраль,  ул. А. Малдыбаева 277 (пер. ул. А. Масалиева)",элитка,45.0,1.0,под самоотделку (псо),,,,,,,,,,,,,,45000,42.825,74.5974,Бишкек,15,20,0,0,0,0,0,0,0,0,0,0,0,0,1,0,монолитный,2025
агент,4,"Бишкек, Цирк/Дворец бракосочетания",сталинка,92.0,,среднее,,,,,,,,,,,,,,85000,42.8823,74.6129,Бишкек,3,3,0,0,0,0,0,0,0,0,0,0,0,0,0,0,кирпичный,
агент,3,"Бишкек, Военторг, Тоголок Молдо/Токтогула",элитка,125.0,1.0,евроремонт,,,,,,,,,3.1,,,,,225000,42.8726,74.596,Бишкек,5,14,0,0,0,0,0,0,0,0,0,0,0,0,0,0,монолитный,2021
агент,2,"Бишкек, Магистраль, Токомбаева-Сухэ-батора",элитка,85.0,1.0,под самоотделку (псо),,,,,,,,,,,,,,123000,42.8191,74.6129,Бишкек,8,18,0,0,0,0,0,0,0,0,0,0,0,0,1,0,монолитный,2024
агент,4,"Бишкек, Баха, Курчатова/Ахунбаева",элитка,157.6,1.0,евроремонт,0.0,1.0,обмен не предлагать,,1.0,1.0,,,,,2 с/у и более,,,177000,42.8414,74.5626,Бишкек,10,10,0,0,0,0,0,0,0,0,1,0,1,0,1,0,кирпичный,2022
агент,2,"Бишкек, Советская - Скрябина, Медерова/Элебаева",элитка,83.0,1.0,под самоотделку (псо),,,,,,,,,3.0,,,,,83000,42.8525,74.6143,Бишкек,11,14,0,0,0,0,0,0,0,0,0,0,0,0,0,0,монолитный,2023
агент,3,"Бишкек, Магистраль,  ул. Малдыбаева, 261",элитка,96.0,1.0,под самоотделку (псо),,,,,,,,,,,,,,76800,42.8231,74.5965,Бишкек,4,15,0,0,0,0,0,0,0,0,0,0,0,0,0,0,монолитный,2025
агент,2,"Бишкек, Магистраль, Байтик Баатыра/Южная магистраль",элитка,78.0,,евроремонт,,,,,,,,,,,раздельный,,,100000,42.8198,74.604,Бишкек,15,16,0,0,0,0,0,0,0,0,0,0,0,0,1,0,монолитный,2023
агент,1,"Бишкек, Магистраль, Б. Баатыра/А. Токомбаева",элитка,53.0,1.0,под самоотделку (псо),,,,,,,,,3.0,,,,,52500,42.8183,74.6026,Бишкек,2,12,0,0,0,0,0,0,0,0,0,0,0,0,0,0,монолитный,2024
агент,1,"Бишкек, Кок-Жар ж/м, Алматинка/Сухэ-Батора",106 серия,46.0,1.0,хорошее,,1.0,обмен не предлагать,,1.0,,,,,,,,,42000,42.8345,74.6404,Бишкек,9,9,0,0,0,0,0,0,0,0,1,0,1,0,0,0,панельный,2017
агент,1,"Бишкек, Магистраль, Байтик Баатыра/Южная магистраль",элитка,62.0,1.0,евроремонт,,,,,,,,,,,раздельный,,,80600,42.8198,74.604,Бишкек,4,14,0,0,0,0,0,0,0,0,0,0,0,0,0,0,монолитный,2024
агент,2,"Бишкек, Пишпек ж/м,  ул. Льва Толстого - Крылова",элитка,73.0,1.0,под самоотделку (псо),,,,,,,,,,,,,,54750,42.8636,74.5442,Бишкек,5,14,0,0,0,0,0,0,0,0,0,0,0,0,0,0,монолитный,2024
агент,1,"Бишкек, АЮ Grand,  ул. Анкара 1/31",элитка,46.1,1.0,под самоотделку (псо),,,обмен не предлагать,,1.0,1.0,,,,,,,,41490,42.8561,74.6888,Бишкек,13,14,0,0,0,0,0,0,0,0,0,0,0,0,0,0,монолитный,2024
агент,2,"Бишкек, Джал-23 м-н (Нижний Джал), Курчатова 73",элитка,55.0,1.0,евроремонт,,1.0,обмен не предлагать,,1.0,1.0,частично меблирована,,3.0,,раздельный,металлическая,,73000,42.8416,74.5628,Бишкек,9,10,0,0,0,0,0,0,0,0,1,1,1,0,0,0,монолитный,2020
агент,4,"Бишкек, Магистраль, Сухэ-Батора/Токомбаева",элитка,157.0,1.0,под самоотделку (псо),,,,,,,,,3.0,,,,,188400,42.8195,74.6155,Бишкек,12,12,0,0,0,0,0,0,0,0,1,0,0,0,1,0,монолитный,2019
агент,2,"Бишкек, Магистраль, Байтик-Баатыра/А. Токомбаева",элитка,80.0,,под самоотделку (псо),,,,,,,,,3.0,,,,,79200,42.8192,74.6031,Бишкек,8,14,0,0,0,0,0,0,0,0,0,0,0,0,1,0,монолитный,2024
агент,1,"Бишкек, Ак-Орго ж/м",элитка,42.0,,евроремонт,,,,,,,,,,,,,,57000,42.8466,74.5267,Бишкек,7,10,0,0,0,0,0,0,0,0,0,0,0,0,0,0,кирпичный,
агент,3,"Бишкек, Магистраль, Сухэ Батора/Токомбаева",элитка,106.0,1.0,под самоотделку (псо),,,,,1.0,,,,3.0,,2 с/у и более,,,111000,42.819,74.6135,Бишкек,7,14,0,0,0,0,0,0,0,0,0,0,0,0,0,0,кирпичный,2023
агент,3,"Бишкек, Московская - Белинка",индивид. планировка,66.0,1.0,хорошее,,,,,,1.0,,ламинат,,,,,,81700,42.8674,74.5845,Бишкек,4,5,0,0,0,0,0,0,0,0,1,0,1,0,0,0,кирпичный,
агент,1,"Бишкек, Аламедин-1 м-н",106 серия,43.0,1.0,хорошее,,,,,1.0,,,,,,совмещенный,бронированная,,52000,42.8771,74.6853,Бишкек,2,9,0,0,0,0,0,0,0,0,0,0,0,0,0,0,панельный,
агент,1,"Бишкек, Магистраль, Сухе Батора/Южная Магистраль",элитка,59.0,1.0,под самоотделку (псо),,,,,,,,,3.1,,,,,59000,42.8223,74.6161,Бишкек,8,12,0,0,0,0,0,0,0,0,0,0,0,0,1,0,монолитный,2024
агент,2,"Бишкек, Советская - Скрябина, Медерова/Элебаева",элитка,83.0,1.0,под самоотделку (псо),0.0,0.0,обмен не предлагать,,,,,,3.0,,,,,83000,42.8531,74.6146,Бишкек,11,14,0,0,0,0,0,0,0,0,0,0,0,0,1,0,монолитный,2023
агент,3,"Бишкек, 12 м-н",элитка,102.0,1.0,евроремонт,,,,проводной,1.0,1.0,полностью меблирована,линолеум,3.0,0.0,раздельный,бронированная,рядом охраняемая стоянка,143500,42.8115,74.636,Бишкек,4,11,1,1,1,0,0,0,0,0,1,0,0,0,0,0,кирпичный,2019
агент,2,"Бишкек, 11 м-н",104 серия,43.0,1.0,среднее,,,,,1.0,,,,,,,,,57000,42.821,74.6303,Бишкек,4,4,1,0,0,0,0,0,0,0,1,0,1,0,0,0,панельный,
агент,2,"Бишкек, Магистраль, Байтик-Баатыра/А. Токомбаева",элитка,80.0,,под самоотделку (псо),,,,,,1.0,,,3.0,,раздельный,бронированная,паркинг,80000,42.8192,74.6031,Бишкек,9,14,0,0,0,0,0,0,0,0,0,0,0,0,1,0,монолитный,2024
агент,2,"Бишкек, Джал-23 м-н (Нижний Джал)",106 серия,54.0,,,,,,,,,,,,,,,,72000,42.841,74.5663,Бишкек,2,9,0,0,0,0,0,0,0,0,0,0,0,0,0,0,панельный,
агент,2,"Бишкек, Филармония",элитка,80.0,,хорошее,,,,,,,,,,,,,,112000,42.8783,74.5861,Бишкек,12,12,0,0,0,0,0,0,0,0,0,0,0,0,0,0,кирпичный,
агент,2,"Бишкек, Восток-5 м-н, Набережная",105 серия,53.0,1.0,среднее,,,,,1.0,1.0,,,3.0,,раздельный,,,71500,42.8727,74.6278,Бишкек,5,9,0,0,0,0,0,0,0,0,1,0,1,0,1,0,панельный,
агент,3,"Бишкек, Магистраль, Малдыбаева 279",элитка,117.0,,под самоотделку (псо),,,,,,,,,3.2,,,,,163800,42.8248,74.5976,Бишкек,6,13,0,0,0,0,0,0,0,0,0,0,0,0,1,0,монолитный,2023
агент,2,"Бишкек, Магистраль, Байтик Баатыра/Южная магистраль",элитка,78.0,,евроремонт,,,,,,,,,,,раздельный,,,97500,42.8198,74.604,Бишкек,6,14,0,0,0,0,0,0,0,0,0,0,0,0,0,0,монолитный,2022
агент,4,"Бишкек, Золотой квадрат, Орозбекова/Чокморова",элитка,226.0,1.0,евроремонт,,,,,,,,,3.0,,,,,360000,42.8687,74.6029,Бишкек,5,13,0,0,0,0,0,0,0,0,0,0,0,0,0,0,кирпичный,2017
агент,3,"Бишкек, 12 м-н, Токомбаева 12",элитка,102.0,1.0,евроремонт,,,,,1.0,1.0,частично меблирована,паркет,3.0,,раздельный,,паркинг,165000,42.8116,74.6361,Бишкек,2,9,0,0,0,0,0,0,0,0,1,0,1,0,1,0,монолитный,2019
агент,1,"Бишкек, Шлагбаум,  ул. Московская/ ул. Фучика",элитка,53.0,,под самоотделку (псо),,,,,,,,,,,,,,39750,42.8737,74.5608,Бишкек,6,10,0,0,0,0,0,0,0,0,0,0,0,0,1,0,монолитный,2025
агент,3,"Бишкек, Магистраль, Байтик Баатыра/Токомбаева",элитка,90.0,1.0,под самоотделку (псо),,,,,,,,,3.0,,раздельный,,,81000,42.818,74.6088,Бишкек,13,16,0,0,0,0,0,0,0,0,0,0,0,0,1,0,монолитный,2024
агент,3,"Бишкек, Бишкек-Парк",элитка,125.0,,евроремонт,,,,,,,,,,,,,,225000,42.8755,74.5913,Бишкек,7,14,0,0,0,0,0,0,0,0,0,0,0,0,0,0,кирпичный,
агент,2,"Бишкек, Рабочий Городок,  ул.Льва Толстого/Садырбаева",элитка,73.0,1.0,евроремонт,,,,,,,,,2.8,,раздельный,,,51100,42.8653,74.569,Бишкек,14,15,0,0,0,0,0,0,0,0,0,0,0,0,1,0,монолитный,
агент,4,"Бишкек, Филармония, Сыдыкова/Коенкозова",элитка,166.5,1.0,среднее,,,с доплатой покупателя,,1.0,1.0,частично меблирована,паркет,3.05,,2 с/у и более,металлическая,паркинг,199000,42.8803,74.589,Бишкек,6,7,0,1,1,0,1,0,0,1,1,0,1,0,1,0,кирпичный,2008
агент,4,"Бишкек, Парк Ататюрк, Малдыбаева 54а",элитка,127.0,1.0,евроремонт,,,,,1.0,,частично меблирована,паркет,3.0,,раздельный,металлическая,паркинг,170000,42.8405,74.5995,Бишкек,10,10,0,0,0,0,0,0,0,0,1,0,1,0,1,0,монолитный,2015
агент,2,"Бишкек, Рабочий Городок,  ул.Льва Толстого/Садырбаева",элитка,74.0,1.0,евроремонт,,,,,,,пустая,ламинат,2.8,,,,,51800,42.8653,74.569,Бишкек,2,15,0,0,0,0,0,0,0,0,0,0,0,0,1,0,монолитный,
агент,3,"Бишкек, Золотой квадрат",элитка,145.0,,,,,,,,,,,,,,,,176000,42.8686,74.6041,Бишкек,8,9,0,0,0,0,0,0,0,0,0,0,0,0,0,0,кирпичный,
агент,1,"Бишкек, Джальская больница, Айни/Псковская",элитка,52.7,1.0,евроремонт,,,,,,,,,,,,,,60600,42.8486,74.57,Бишкек,10,14,0,0,0,0,0,0,0,0,0,0,0,0,1,0,кирпичный,2023
агент,4,"Бишкек, Ак Кеме",элитка,110.0,,,,,,,,,,,,,,,,157500,42.8393,74.5833,Бишкек,11,12,0,0,0,0,0,0,0,0,0,0,0,0,0,0,кирпичный,
собственник,2,"Бишкек, Асанбай м-н, Айтиева",106 серия,52.0,1.0,евроремонт,,,,проводной,1.0,1.0,частично меблирована,ламинат,2.8,0.0,раздельный,бронированная,рядом охраняемая стоянка,80000,42.8199,74.6241,Бишкек,1,9,1,0,0,0,0,0,0,0,0,0,0,0,0,0,панельный,1980
собственник,2,"Бишкек, Академия Наук, Турусбекова/проспект Чуй",элитка,75.0,1.0,евроремонт,,,,,1.0,1.0,полностью меблирована,,,,раздельный,,паркинг,112000,42.8789,74.5844,Бишкек,9,10,0,0,0,0,0,0,0,0,0,0,0,0,0,0,кирпичный,
агент,2,"Бишкек, Молодая Гвардия, Молодая гвардия/Чокморова",сталинка,54.0,1.0,евроремонт,,,,,1.0,1.0,полностью меблирована,,,,раздельный,бронированная,паркинг,72000,42.8707,74.5761,Бишкек,2,3,0,0,0,0,0,0,0,0,0,0,0,0,0,0,кирпичный,
собственник,2,"Бишкек, Академия Наук/Сыдыкова",элитка,71.0,,хорошее,,,,проводной,,1.0,частично меблирована,,,,совмещенный,бронированная,,87900,42.8761,74.5829,Бишкек,3,10,0,0,0,0,0,0,0,0,0,0,0,0,0,0,кирпичный,
собственник,1,"Бишкек, Аламедин-1 м-н, Аламедин-1 (Токмакская 45)",малосемейка,30.0,1.0,евроремонт,1.0,,рассмотрю варианты,,,,полностью меблирована,,,,,,,27500,42.8805,74.6841,Бишкек,5,9,0,0,0,0,0,0,0,0,0,0,0,0,1,0,кирпичный,2026
собственник,5,"Бишкек, Достук,",элитка,182.0,1.0,под самоотделку (псо),,0.0,рассмотрю варианты,,,,,,3.0,,,,,310000,42.8837,74.6192,Бишкек,5,8,0,0,0,0,0,0,0,0,0,0,0,0,0,0,монолитный,2023
собственник,1,"Бишкек, Мадина,  ул. 7 апреля",элитка,50.0,1.0,под самоотделку (псо),0.0,,обмен на авто,,,,,,3.0,,,,,50000,42.8695,74.6378,Бишкек,15,16,0,0,0,0,0,0,0,0,0,0,0,0,1,0,кирпичный,2024
собственник,1,"Бишкек, Магистраль, Сухэ Батора/Южная Магистраль",элитка,50.0,1.0,под самоотделку (псо),0.0,0.0,,,,,,,3.0,,,,,47500,42.8168,74.6085,Бишкек,3,12,0,0,0,0,0,0,0,0,0,0,0,0,0,0,монолитный,2022
собственник,2,"Бишкек, Физкультурный, Суванбердиева 110",элитка,70.0,1.0,под самоотделку (псо),0.0,0.0,,adsl,1.0,1.0,,,3.0,1.0,раздельный,бронированная,,62500,42.8475,74.6144,Бишкек,10,12,1,0,0,0,0,0,0,0,1,0,0,0,1,0,монолитный,2023
собственник,2,"Бишкек, Горького - Панфилова, Фатьянова 7",104 серия,42.0,1.0,евроремонт,,1.0,обмен не предлагать,проводной,1.0,0.0,полностью меблирована,ламинат,2.7,0.0,совмещенный,деревянная,,54000,42.8616,74.6057,Бишкек,1,4,0,0,0,0,0,0,0,0,1,0,1,0,0,0,кирпичный,1969
агент,2,"Бишкек, Горького - Панфилова, Фатьянова 71/1/Горького",элитка,62.0,1.0,хорошее,,,,проводной,1.0,1.0,полностью меблирована,,,,совмещенный,металлическая,рядом охраняемая стоянка,70500,42.8548,74.6049,Бишкек,8,10,0,0,0,0,0,0,0,0,1,0,1,0,1,0,кирпичный,
агент,4,"Бишкек, Магистраль, пр. Мира 299/3/Южная магистраль",элитка,140.0,1.0,евроремонт,,,,проводной,1.0,1.0,полностью меблирована,,3.0,,2 с/у и более,,рядом охраняемая стоянка,280000,42.8251,74.5836,Бишкек,3,11,0,0,0,0,0,0,0,0,1,0,1,0,1,0,монолитный,
агент,3,"Бишкек, Московская - Уметалиева, Боконбаева/Калык Акиева",элитка,100.6,1.0,евроремонт,,,,проводной,1.0,1.0,полностью меблирована,ламинат,3.0,0.0,2 с/у и более,,рядом охраняемая стоянка,89000,42.8683,74.5766,Бишкек,3,14,0,0,0,0,0,0,0,0,0,0,0,0,0,0,кирпичный,
агент,1,"Бишкек, Верхний Джал м-н",106 серия,44.0,,хорошее,,,,,,,,,,,,,,53000,42.8351,74.5642,Бишкек,7,9,0,0,0,0,0,0,0,0,0,0,0,0,0,0,панельный,
агент,5,"Бишкек, Магистраль, Сухэ-Батора/Токомбаева",элитка,179.0,1.0,евроремонт,,,,проводной,1.0,1.0,полностью меблирована,ламинат,3.0,,2 с/у и более,металлическая,,340000,42.8181,74.6164,Бишкек,3,8,1,1,1,0,0,0,0,0,0,0,1,1,1,0,монолитный,
