Тип предложения,Комнаты,Адрес,Серия,Площадь,Отопление,Состояние,Возможность рассрочки,Возможность ипотеки,Возможность обмена,Интернет,Газ,Балкон,Мебель,Пол,Высота потолков,Телефон,Санузел,Входная дверь,Парковка,Ценна доллар,Ценна сом,Lat,Lon,Город,Номер этажа,Общий этаж,Домофон,Видеонаблюдение,Охрана,Решетки на окнах,Кодовый замок,Сигнализация,Видеодомофон,Консьерж,Договор купли-продажи,Договор дарения,Технический паспорт,Акт ввода в эксплуатацию,Красная книга,зеленая книга,Material,Year,"Стоимость, доллар США за 1 кв.м"
собственник,1,"Бишкек, Магистраль, Куттубаева/Южная Магистраль",элитка,40.0,1,евроремонт,0,0,обмен не предлагать,оптика,1,1,пустая,ламинат,3.0,1,совмещенный,металлическая,паркинг,62000,5489480,42.8163,74.6224,Бишкек,3,10,0,0,0,0,0,0,0,0,0,0,0,0,0,0,монолитный,2022,1550.0
собственник,3,"Бишкек, Ак Кеме",элитка,110.9,1,евроремонт,0,1,рассмотрю варианты,проводной,1,1,частично меблирована,ламинат,2.9796183723797784,1,раздельный,бронированная,паркинг,180000,15937200,42.8396,74.5824,Бишкек,4,7,0,0,0,0,0,0,0,0,1,0,1,0,0,0,кирпичный,2014,1623.0838593327321
собственник,2,"Бишкек, Ак Эмир рынок, Московская/Шопокова, 38",элитка,78.93,1,под самоотделку (псо),0,0,обмен не предлагать,нет,0,1,пустая,ламинат,3.2,0,2 с/у и более,бронированная,нет,98000,8676920,42.8679,74.6145,Бишкек,13,14,0,1,1,0,0,0,0,0,0,0,0,0,0,0,монолитный,2023,1241.6064867604205
собственник,1,"Бишкек, Ак-Орго ж/м, Ахунбаева/Ашар",элитка,39.0,1,под самоотделку (псо),1,0,обмен не предлагать,проводной,1,0,пустая,ламинат,2.7,1,раздельный,бронированная,рядом охраняемая стоянка,39000,3453060,42.845,74.5207,Бишкек,5,9,0,0,0,0,0,0,0,0,0,0,0,0,0,0,кирпичный,2024,1000.0
собственник,3,"Бишкек, КГУСТА, Малдыбаева 30Б/Ахунбаева",индивид. планировка,68.0,1,хорошее,0,0,обмен не предлагать,проводной,1,1,полностью меблирована,паркет,2.9796183723797784,1,раздельный,бронированная,нет,87000,7702980,42.8421,74.6011,Бишкек,5,5,1,0,0,1,0,0,0,0,1,0,0,0,0,0,кирпичный,1990,1279.4117647058824
собственник,3,"Бишкек, 7 м-н 1/жукеева пудовкина",104 серия,58.0,1,среднее,0,0,обмен не предлагать,нет,1,1,пустая,ламинат,3.0,1,совмещенный,бронированная,нет,74000,6551960,42.8324,74.6157,Бишкек,2,4,0,0,0,0,0,0,0,0,0,0,1,0,0,0,панельный,1969,1275.8620689655172
собственник,3,"Бишкек, 7 м-н, Юнусалиева 173/3",элитка,84.0,1,хорошее,0,0,обмен не предлагать,нет,1,1,полностью меблирована,ламинат,3.0,1,раздельный,бронированная,паркинг,116000,10270640,42.8285,74.6205,Бишкек,1,10,1,1,0,0,0,0,0,0,1,0,1,1,1,0,кирпичный,2015,1380.952380952381
собственник,2,"Бишкек, Магистраль, Сухэ-Батора/Токомбаева",элитка,75.0,1,евроремонт,0,1,обмен не предлагать,adsl,1,0,полностью меблирована,ламинат,3.0,1,раздельный,бронированная,нет,115000,10182100,42.8188,74.6162,Бишкек,10,10,1,1,1,0,0,0,1,0,1,0,1,0,0,0,монолитный,2021,1533.3333333333333
собственник,1,"Бишкек, Верхний Джал м-н, Тыналиева 15/Курчатова",106 серия,45.0,1,хорошее,0,1,обмен не предлагать,проводной,1,1,пустая,линолеум,2.9,1,совмещенный,бронированная,рядом охраняемая стоянка,53000,4692620,42.8348,74.5642,Бишкек,7,9,1,1,0,0,1,0,0,0,0,0,1,0,0,0,панельный,1999,1177.7777777777778
собственник,4,"Бишкек, Сквер Тоголок Молдо, Чуйкова 134/Исанова",элитка,145.0,1,евроремонт,0,0,обмен на авто,проводной,1,1,полностью меблирована,ламинат,3.0,0,2 с/у и более,металлическая,паркинг,290000,25676600,42.865,74.5924,Бишкек,2,10,1,1,0,1,0,0,1,0,0,0,0,0,0,0,монолитный,2016,2000.0
собственник,1,"Бишкек, Молодая Гвардия, Абдумомунова 309/Фрунзе",элитка,52.0,1,евроремонт,0,0,рассмотрю варианты,нет,0,0,пустая,ламинат,3.0,0,нет,бронированная,нет,75000,6640500,42.8815,74.5775,Бишкек,8,12,0,0,0,0,0,0,0,0,0,0,1,0,0,0,монолитный,2021,1442.3076923076924
собственник,1,"с. Кок-Джар, мкр. Кок Жар",элитка,41.0,1,под самоотделку (псо),0,0,обмен не предлагать,нет,0,0,пустая,ламинат,3.0,0,нет,бронированная,нет,39900,3532746,42.8206,74.649,Бишкек,14,14,0,0,0,0,0,0,0,0,0,0,0,0,0,0,монолитный,2024,973.170731707317
собственник,3,"Бишкек, Магистраль, Куттубаева/Южная Магистраль",элитка,9.0,1,евроремонт,0,0,обмен не предлагать,проводной,1,1,частично меблирована,ламинат,3.0,0,раздельный,бронированная,нет,118000,10447720,42.8161,74.6228,Бишкек,8,12,0,1,1,1,0,0,0,0,0,0,0,0,0,0,кирпичный,2022,13111.111111111111
собственник,4,"Бишкек, Магистраль, Масалиева/Бакаева",элитка,158.0,1,под самоотделку (псо),0,0,обмен не предлагать,adsl,1,1,пустая,пробковое,3.0,1,раздельный,бронированная,паркинг,138500,12262790,42.8284,74.5771,Бишкек,8,12,1,1,1,0,0,0,0,0,0,0,0,0,1,0,кирпичный,2024,876.5822784810126
агент,2,"Бишкек, 12 м-н, 12 мкрн 57/1",элитка,47.0,1,евроремонт,0,0,обмен не предлагать,adsl,1,0,полностью меблирована,ламинат,3.0,1,совмещенный,бронированная,рядом охраняемая стоянка,75000,6640500,42.8121,74.6374,Бишкек,10,13,1,1,1,0,0,0,0,0,0,0,0,0,0,0,монолитный,2021,1595.7446808510638
собственник,1,"Бишкек, VEFA, Кулатова/Элебаева",элитка,45.0,1,евроремонт,0,0,обмен не предлагать,нет,0,0,пустая,ламинат,3.0,0,нет,бронированная,нет,68500,6064990,42.8592,74.6134,Бишкек,7,15,0,0,0,0,0,0,0,0,0,0,0,0,0,0,монолитный,2022,1522.2222222222222
собственник,2,"Бишкек, Джальская больница, Тыналиева 2/21",индивид. планировка,75.0,1,под самоотделку (псо),0,0,обмен не предлагать,нет,1,1,пустая,ламинат,3.0,0,раздельный,бронированная,паркинг,90000,7968600,42.8455,74.5688,Бишкек,6,14,1,1,1,0,1,0,0,0,0,0,1,0,1,0,кирпичный,2019,1200.0
собственник,3,"Бишкек, Старый аэропорт, Бакаева 132а/Ахумбаева Чапаева",элитка,115.0,1,евроремонт,0,1,обмен не предлагать,проводной,1,1,частично меблирована,паркет,2.85,1,2 с/у и более,бронированная,гараж,157000,13900780,42.8414,74.5767,Бишкек,4,6,1,1,0,0,1,0,1,0,1,1,1,1,1,0,монолитный,2014,1365.2173913043478
агент,1,"Лебединовка, Мичурина/Калинина",элитка,34.0,1,евроремонт,0,0,обмен не предлагать,нет,1,0,частично меблирована,ламинат,2.9796183723797784,0,совмещенный,бронированная,нет,46500,4117110,42.884,74.6805,Бишкек,8,9,0,0,0,0,0,0,0,0,0,0,1,1,1,0,кирпичный,2022,1367.6470588235295
агент,1,"Бишкек, Космос, Панфилова 13",хрущевка,29.0,1,среднее,0,0,обмен не предлагать,проводной,1,0,пустая,дерево,2.65,0,совмещенный,деревянная,паркинг,38500,3408790,42.8478,74.5996,Бишкек,1,2,0,0,0,0,0,0,0,0,0,0,0,0,0,0,кирпичный,1960,1327.5862068965516
агент,3,"Бишкек, Московская - Уметалиева/бокомбаева",индивид. планировка,75.0,1,евроремонт,0,0,обмен не предлагать,нет,1,1,пустая,ламинат,2.75,0,раздельный,металлическая,паркинг,80900,7162886,42.8701,74.5823,Бишкек,4,5,0,0,0,0,0,0,0,0,1,0,1,0,1,0,кирпичный,1981,1078.6666666666667
собственник,2,"Бишкек, Душанбинка, Токтоналиева 8/2/Джаманбаева",элитка,63.0,0,евроремонт,0,0,обмен не предлагать,adsl,0,0,пустая,ламинат,2.9796183723797784,1,совмещенный,бронированная,нет,73000,6463420,42.849,74.5925,Бишкек,6,14,0,0,1,0,0,0,0,0,0,0,0,0,0,0,кирпичный,2021,1158.7301587301588
собственник,3,"Бишкек, Московская - Уметалиева, Московская 191",элитка,113.0,0,евроремонт,0,0,рассмотрю варианты,adsl,1,1,частично меблирована,ламинат,3.0,1,раздельный,бронированная,рядом охраняемая стоянка,141250,12506275,42.8713,74.5821,Бишкек,5,12,1,1,1,0,0,0,0,0,1,0,1,1,1,0,кирпичный,2022,1250.0
собственник,2,"Бишкек, Махатма Ганди - БЧК",индивид. планировка,37.0,0,евроремонт,0,0,обмен не предлагать,нет,0,0,пустая,ламинат,2.8,0,совмещенный,бронированная,нет,42000,3718680,42.8927,74.5766,Бишкек,6,6,0,0,0,0,0,0,0,0,1,0,1,0,1,0,монолитный,2022,1135.1351351351352
агент,2,"Бишкек, Академия Наук, Турусбекова",элитка,52.1,1,евроремонт,0,0,обмен не предлагать,проводной,1,1,полностью меблирована,паркет,3.0,1,раздельный,металлическая,паркинг,134000,11864360,42.8778,74.5827,Бишкек,7,9,1,1,1,1,0,1,0,0,1,0,1,0,0,0,кирпичный,2014,2571.9769673704413
агент,1,"Бишкек, Парк Панфилова/Спартак, Логвиненко",элитка,64.0,1,евроремонт,0,0,рассмотрю варианты,проводной,1,1,полностью меблирована,ламинат,3.0,1,совмещенный,металлическая,паркинг,75000,6640500,42.8835,74.5987,Бишкек,10,12,1,1,1,1,0,1,0,0,1,0,1,0,0,0,кирпичный,2012,1171.875
агент,3,"Бишкек, Джал 15 м-н, Ахунбаева/Тыналиева",элитка,74.0,1,евроремонт,0,0,обмен не предлагать,проводной,1,0,пустая,ламинат,2.8,1,совмещенный,бронированная,нет,90000,7968600,42.8449,74.5673,Бишкек,18,18,1,1,1,0,0,0,0,0,1,0,1,0,0,0,монолитный,2014,1216.2162162162163
агент,2,"Бишкек, КНУ, Байтик Баатыра",элитка,120.0,1,евроремонт,0,0,обмен не предлагать,проводной,1,0,полностью меблирована,ламинат,3.0,1,раздельный,металлическая,паркинг,150000,13281000,42.884,74.581,Бишкек,2,9,1,1,1,0,0,0,0,0,1,0,1,0,0,0,кирпичный,2015,1250.0
агент,2,"Лебединовка,  ул. Ленина",элитка,54.0,1,под самоотделку (псо),0,0,обмен не предлагать,нет,1,0,пустая,ламинат,3.1,0,нет,бронированная,нет,61500,5445210,42.8845,74.662,Бишкек,9,12,1,1,1,0,0,0,0,0,0,0,0,0,0,0,кирпичный,2023,1138.888888888889
агент,3,"Бишкек, Джал-23 м-н (Нижний Джал)",106 серия,68.0,1,хорошее,0,0,обмен не предлагать,проводной,1,1,частично меблирована,линолеум,2.8,1,раздельный,металлическая,паркинг,74500,6596230,42.843,74.5639,Бишкек,9,9,1,0,0,1,0,0,0,0,1,0,1,0,0,0,панельный,2009,1095.5882352941176
агент,3,"Бишкек, Советская - Скрябина, Скрябина/Советская",элитка,136.0,1,евроремонт,0,0,обмен не предлагать,проводной,1,1,полностью меблирована,паркет,3.0,1,раздельный,бронированная,рядом охраняемая стоянка,176000,15583040,42.8497,74.6099,Бишкек,4,10,1,1,1,1,0,0,1,0,1,0,1,0,0,0,кирпичный,2020,1294.1176470588234
агент,2,"Бишкек, Кара-Жыгач ж/м, Кемин/Субан-Ата",элитка,49.0,1,евроремонт,0,0,обмен не предлагать,проводной,1,1,пустая,ламинат,2.8,1,совмещенный,металлическая,рядом охраняемая стоянка,52000,4604080,42.8596,74.6634,Бишкек,1,5,1,0,0,0,0,0,0,0,0,0,0,0,1,0,панельный,2022,1061.2244897959183
агент,3,"Бишкек, Рабочий Городок,  ул.Льва Толстого/Садырбаева",элитка,87.0,1,под самоотделку (псо),0,0,обмен не предлагать,проводной,0,0,пустая,ламинат,2.8,1,нет,бронированная,нет,74000,6551960,42.8653,74.569,Бишкек,6,15,0,0,0,0,0,0,0,0,0,0,0,0,0,0,монолитный,2021,850.5747126436781
агент,1,"Бишкек Ленинский район,  ул. Барпы Алыкулова/Южная Магистраль",элитка,45.97,0,под самоотделку (псо),0,0,обмен не предлагать,проводной,1,0,пустая,ламинат,2.9796183723797784,1,совмещенный,бронированная,нет,46000,4072840,42.8236,74.5127,Бишкек,10,14,0,0,1,0,0,0,0,0,0,0,0,0,0,0,монолитный,2026,1000.6525995214271
агент,3,"Бишкек Ленинский район,  ул. Барпы Алыкулова/Южная Магистраль",элитка,97.55,0,под самоотделку (псо),0,1,обмен на авто,проводной,1,0,пустая,ламинат,2.9796183723797784,1,раздельный,бронированная,нет,96000,8499840,42.8236,74.5127,Бишкек,4,14,0,0,0,0,0,0,0,0,0,0,0,0,0,0,монолитный,2026,984.1107124551512
агент,1,"Бишкек, Космос, Абая 93/1",элитка,54.51,1,под самоотделку (псо),0,0,обмен не предлагать,проводной,1,1,пустая,ламинат,3.0,1,раздельный,металлическая,паркинг,48500,4294190,42.8489,74.6,Бишкек,8,12,0,0,0,0,0,0,0,0,0,0,0,0,0,0,монолитный,2023,889.7450009172629
агент,3,"Бишкек, Баха, Султана Боронбая",элитка,87.02,1,под самоотделку (псо),1,1,рассмотрю варианты,проводной,1,1,пустая,ламинат,3.0,1,раздельный,металлическая,рядом охраняемая стоянка,77000,6817580,42.8453,74.5516,Бишкек,2,10,1,1,1,0,0,0,1,0,0,0,0,0,0,0,кирпичный,2024,884.8540565387268
агент,4,"Бишкек, Площадь Победы, Советская/ Жумабек",хрущевка,92.0,1,хорошее,0,0,обмен не предлагать,проводной,1,1,пустая,ламинат,3.2,1,раздельный,деревянная,гараж,89000,7880060,42.8793,74.6146,Бишкек,3,3,0,0,0,0,0,0,0,0,0,0,0,0,0,0,кирпичный,1972,967.3913043478261
агент,1,"Бишкек, Магистраль, Сухэ Батора/Южная Магистраль",элитка,36.6,1,под самоотделку (псо),0,0,обмен не предлагать,проводной,1,0,пустая,ламинат,3.0,1,раздельный,нет,паркинг,37000,3275980,42.8217,74.6172,Бишкек,3,12,0,0,0,0,0,0,0,0,0,0,0,0,0,0,монолитный,2022,1010.9289617486338
собственник,2,"Бишкек, Магистраль, бакаева 144/Масалиева",элитка,104.5,1,под самоотделку (псо),1,0,обмен не предлагать,нет,0,0,пустая,ламинат,2.8,0,нет,бронированная,нет,114950,10177673,42.8285,74.577,Бишкек,3,12,0,0,0,0,0,0,0,0,0,0,0,0,0,0,монолитный,2024,1100.0
собственник,1,"Бишкек, Магистраль, Бакаева 144/Магистраль",элитка,67.9,1,под самоотделку (псо),0,0,обмен на авто,проводной,1,0,пустая,ламинат,2.9,1,совмещенный,бронированная,рядом охраняемая стоянка,74690,6613053,42.8286,74.577,Бишкек,3,12,0,1,1,0,0,0,0,0,0,0,0,0,0,0,кирпичный,2022,1100.0
собственник,1,"Бишкек, Магистраль, Бакаева 144/Магистраль",элитка,67.9,1,под самоотделку (псо),1,0,обмен не предлагать,проводной,1,1,пустая,ламинат,2.8,1,совмещенный,бронированная,рядом охраняемая стоянка,74690,6613053,42.8286,74.5772,Бишкек,7,12,1,1,1,0,0,0,0,0,0,0,0,0,0,0,монолитный,2024,1100.0
собственник,2,с. Кок-Джар,элитка,70.0,1,под самоотделку (псо),0,0,обмен не предлагать,нет,0,0,пустая,ламинат,2.9796183723797784,0,нет,бронированная,нет,60800,5383232,42.8131,74.648,Бишкек,8,13,0,0,0,0,0,0,0,0,0,0,0,0,0,0,кирпичный,2024,868.5714285714286
собственник,1,"Бишкек, 10 м-н 17",105 серия,37.0,1,среднее,0,0,обмен не предлагать,нет,0,0,пустая,ламинат,2.9796183723797784,0,нет,бронированная,нет,44000,3895760,42.8329,74.6017,Бишкек,5,5,0,0,0,0,0,0,0,0,0,0,1,0,0,0,панельный,1970,1189.1891891891892
собственник,3,"Бишкек, Военторг, Тоголок Молдо/Токтогула",элитка,128.0,1,под самоотделку (псо),1,0,обмен не предлагать,нет,0,0,пустая,ламинат,3.1,0,нет,бронированная,нет,151040,13373082,42.8717,74.5938,Бишкек,12,14,0,0,0,0,0,0,0,0,0,0,0,0,1,0,монолитный,2022,1180.0
собственник,3,"Бишкек, Магистраль, Сухэ-Батора/Токомбаева",элитка,125.0,1,под самоотделку (псо),0,0,обмен не предлагать,нет,0,0,пустая,ламинат,3.0,0,нет,бронированная,нет,130000,11510200,42.8195,74.6158,Бишкек,12,12,0,0,0,0,0,0,0,0,0,0,0,0,0,0,монолитный,2019,1040.0
агент,2,"Бишкек, Джал-29 м-н, Магистраль/Тыналиева",элитка,77.0,1,под самоотделку (псо),0,0,обмен не предлагать,проводной,1,0,пустая,ламинат,3.0,0,раздельный,металлическая,нет,84000,7437360,42.8306,74.5657,Бишкек,8,12,0,1,0,0,0,0,0,0,0,0,0,0,0,0,кирпичный,2024,1090.909090909091
собственник,1,"Бишкек, Мадина,  ул. 7 апреля",элитка,52.0,1,под самоотделку (псо),0,0,с доплатой покупателя,проводной,1,1,пустая,ламинат,3.0,0,совмещенный,металлическая,паркинг,53800,4763452,42.8694,74.6377,Бишкек,3,16,0,1,0,0,0,0,0,0,0,0,0,0,1,0,монолитный,2022,1034.6153846153845
собственник,1,"Бишкек, Горького - Алма-Атинская, 7-апреля (Алматинская)/Исакеева (ниже Горького)",индивид. планировка,42.0,1,под самоотделку (псо),0,0,обмен не предлагать,проводной,0,1,пустая,ламинат,2.9796183723797784,0,совмещенный,металлическая,паркинг,28980,2565889,42.8603,74.6291,Бишкек,7,12,1,1,0,0,0,0,0,0,0,0,0,0,1,0,кирпичный,2025,690.0
собственник,3,"Бишкек, Кок-Жар ж/м, Шабдан Баатыра/Шоокум",индивид. планировка,109.0,1,евроремонт,0,0,с доплатой покупателя,проводной,1,1,пустая,паркет,3.0,0,раздельный,металлическая,рядом охраняемая стоянка,103000,9119620,42.8501,74.6361,Бишкек,11,12,1,1,0,0,0,0,0,0,0,0,0,0,1,0,кирпичный,2021,944.954128440367
собственник,1,"Бишкек, 10 м-н, Малдыбаева 17/10-мкр",105 серия,35.0,1,среднее,0,0,обмен не предлагать,проводной,1,0,пустая,ламинат,2.9796183723797784,0,совмещенный,бронированная,нет,44300,3922322,42.8329,74.6013,Бишкек,5,5,1,0,0,0,0,0,0,0,1,0,1,0,0,0,панельный,1990,1265.7142857142858
собственник,2,"Бишкек, Золотой квадрат, Панфилова-Московская",элитка,74.0,1,под самоотделку (псо),0,0,с доплатой покупателя,нет,1,1,пустая,ламинат,3.0,0,раздельный,металлическая,паркинг,95000,8411300,42.8694,74.6003,Бишкек,8,10,0,0,0,0,0,0,0,0,0,0,0,0,0,0,монолитный,2024,1283.7837837837837
агент,2,"Бишкек, Ошский рынок, Киевская/Бейшеналиева",сталинка,52.0,1,евроремонт,0,0,с доплатой покупателя,проводной,1,0,пустая,ламинат,2.9796183723797784,0,раздельный,металлическая,нет,61500,5445210,42.8758,74.572,Бишкек,2,3,1,0,0,0,0,0,0,0,1,0,1,0,0,0,кирпичный,1960,1182.6923076923076
агент,1,"Бишкек, Ден Сяопина - Фучика, Харьковская 35/Жибек Жолу",индивид. планировка,35.0,1,евроремонт,0,0,обмен не предлагать,проводной,1,0,полностью меблирована,ламинат,2.9796183723797784,0,совмещенный,металлическая,нет,43800,3878052,42.8873,74.5563,Бишкек,1,5,1,0,0,0,0,0,0,0,1,0,1,0,0,0,кирпичный,2021,1251.4285714285713
агент,3,"Бишкек, Магистраль, Сухэ-Батора/Токомбаева",элитка,125.0,1,под самоотделку (псо),0,0,с доплатой покупателя,проводной,1,1,пустая,ламинат,3.0,0,2 с/у и более,металлическая,нет,133750,11842225,42.8195,74.6155,Бишкек,12,12,0,0,0,0,0,0,0,0,0,0,0,1,1,0,монолитный,2019,1070.0
собственник,1,"Бишкек, Улан-2 м-н",105 серия,43.4,1,хорошее,0,0,обмен не предлагать,нет,1,0,полностью меблирована,ламинат,2.7,0,совмещенный,бронированная,нет,51500,4559810,42.8452,74.6338,Бишкек,9,9,0,0,0,0,0,0,0,0,0,0,0,0,0,0,панельный,2018,1186.6359447004609
собственник,3,"Бишкек, Кара-Жыгач ж/м, Сары озон (Лев Толстой) 86/Достоевский",индивид. планировка,82.0,1,евроремонт,0,0,с доплатой покупателя,проводной,1,1,частично меблирована,паркет,2.9796183723797784,0,раздельный,металлическая,паркинг,67500,5976450,42.8664,74.6525,Бишкек,3,4,1,1,0,0,0,0,0,0,1,0,1,0,0,0,кирпичный,2022,823.170731707317
собственник,1,"Бишкек, Горького - Алма-Атинская, Алматинка/Горького",индивид. планировка,42.0,1,под самоотделку (псо),0,0,обмен не предлагать,нет,0,0,пустая,ламинат,2.9796183723797784,0,нет,бронированная,нет,29980,2654429,42.8603,74.629,Бишкек,7,12,0,0,0,0,0,0,0,0,0,0,0,0,0,0,кирпичный,2025,713.8095238095239
собственник,1,"Бишкек, Улан-2 м-н",105 серия,43.0,1,евроремонт,0,1,обмен не предлагать,оптика,0,0,полностью меблирована,ламинат,2.9796183723797784,0,совмещенный,бронированная,паркинг,51000,4515540,42.8452,74.6338,Бишкек,9,9,0,0,0,0,0,0,0,0,1,0,0,0,0,0,панельный,2018,1186.046511627907
собственник,1,"Бишкек, Кок-Жар ж/м, Молдокулова 10/1/Ахунбаева",105 серия,44.6,1,евроремонт,0,0,обмен не предлагать,оптика,0,1,полностью меблирована,ламинат,2.8,1,совмещенный,бронированная,паркинг,53000,4692620,42.8395,74.6442,Бишкек,8,9,1,1,0,0,1,0,0,0,1,0,1,1,1,0,панельный,2020,1188.340807174888
агент,4,"Бишкек, Магистраль, Токомбаева",элитка,172.0,0,евроремонт,0,0,обмен не предлагать,нет,0,0,пустая,ламинат,3.0,0,нет,бронированная,нет,340000,30103600,42.8172,74.6238,Бишкек,12,13,0,0,0,0,0,0,0,0,0,0,0,0,0,0,монолитный,2021,1976.7441860465117
собственник,1,"Бишкек, 4 м-н, 4 22",104 серия,32.0,1,евроремонт,0,0,обмен не предлагать,проводной,1,1,пустая,ламинат,2.6,1,совмещенный,бронированная,паркинг,54500,4825430,42.8387,74.629,Бишкек,3,4,0,0,0,0,0,0,0,0,0,0,0,0,0,0,панельный,1972,1703.125
собственник,1,"Бишкек, Магистраль, Куттубаева/Южн. Магистраль",элитка,43.0,1,под самоотделку (псо),0,0,обмен не предлагать,проводной,1,1,пустая,ламинат,3.0,1,раздельный,металлическая,паркинг,36500,3231710,42.8113,74.6221,Бишкек,6,10,1,1,0,0,0,0,1,0,0,0,0,0,0,0,монолитный,2023,848.8372093023256
собственник,2,"Бишкек, Джал 15 м-н, Ахунбаева/Тыналиева",элитка,60.0,1,под самоотделку (псо),0,0,обмен не предлагать,нет,0,0,пустая,ламинат,3.0,0,нет,бронированная,нет,52000,4604080,42.8451,74.5654,Бишкек,12,14,0,0,0,0,0,0,0,0,0,0,0,0,0,0,монолитный,2023,866.6666666666666
собственник,1,"Бишкек, Магистраль,  ул. Куттубаева, 15",элитка,45.0,1,под самоотделку (псо),0,0,обмен не предлагать,проводной,1,1,пустая,ламинат,3.0,1,совмещенный,металлическая,паркинг,37000,3275980,42.813,74.6193,Бишкек,3,12,1,1,0,0,0,0,1,0,0,0,0,0,0,0,монолитный,2023,822.2222222222222
собственник,1,"Бишкек, Джал 15 м-н, Ахунбаева/Тыналиева",элитка,42.0,1,под самоотделку (псо),0,0,обмен не предлагать,проводной,1,1,пустая,ламинат,3.0,1,совмещенный,металлическая,паркинг,40500,3585870,42.8451,74.5654,Бишкек,9,14,1,1,0,0,0,0,0,0,0,0,0,0,1,0,монолитный,2023,964.2857142857143
собственник,1,"Бишкек, Джал 15 м-н, Ахунбаева/Тыналиева",элитка,42.0,1,под самоотделку (псо),0,0,обмен не предлагать,проводной,1,1,пустая,ламинат,3.0,1,совмещенный,металлическая,паркинг,40500,3585870,42.8451,74.5654,Бишкек,7,14,1,1,0,0,0,0,1,0,0,0,0,0,1,0,монолитный,2023,964.2857142857143
собственник,2,"Бишкек, Матросова, Суванбердиева 110",элитка,68.0,1,под самоотделку (псо),0,0,обмен не предлагать,нет,0,0,пустая,ламинат,3.0,0,нет,бронированная,нет,66000,5843640,42.8485,74.6173,Бишкек,10,12,0,0,0,0,0,0,0,0,0,0,0,0,0,0,монолитный,2023,970.5882352941177
собственник,3,"Бишкек, Западный автовокзал, Динары Асановой 4",элитка,76.22,1,под самоотделку (псо),0,0,обмен не предлагать,нет,1,1,пустая,ламинат,3.0,1,раздельный,бронированная,нет,63000,5578020,42.884,74.5633,Бишкек,3,9,0,0,0,0,0,0,0,0,1,0,1,0,1,0,монолитный,2023,826.5547100498557
собственник,1,"Бишкек, Магистраль, Сухэ Батора/Южная Магистраль",элитка,36.6,1,под самоотделку (псо),0,0,обмен не предлагать,нет,1,1,пустая,ламинат,3.2,0,совмещенный,бронированная,паркинг,32940,2916508,42.8217,74.6172,Бишкек,4,13,0,0,0,0,0,0,0,0,1,0,1,0,0,0,монолитный,2025,900.0
собственник,4,"Бишкек, Магистраль, Токомбаева (Южная магистраль) 33/напротив гипермаркета ""Глобус""",элитка,125.0,0,хорошее,0,0,обмен не предлагать,проводной,0,0,пустая,ламинат,2.9796183723797784,0,2 с/у и более,бронированная,паркинг,160000,14166400,42.8241,74.6127,Бишкек,3,12,0,0,0,0,0,0,0,0,0,0,0,0,0,0,кирпичный,2021,1280.0
собственник,1,"Бишкек, Тунгуч м-н, микрорайон Тунгуч (второй дом от ул.Анкара)",105 серия,35.0,1,хорошее,0,0,обмен не предлагать,проводной,1,1,пустая,ламинат,2.9796183723797784,0,нет,бронированная,паркинг,46000,4072840,42.8543,74.6891,Бишкек,2,9,0,0,0,0,0,0,0,0,0,0,0,0,0,0,панельный,2022,1314.2857142857142
собственник,1,"Бишкек, Кок-Жар ж/м, ЖК премиум класса ""Ботсад""",элитка,45.0,0,под самоотделку (псо),0,0,обмен не предлагать,нет,0,0,пустая,ламинат,2.9796183723797784,0,нет,бронированная,нет,54000,4781160,42.8337,74.6398,Бишкек,4,14,0,0,0,0,0,0,0,0,0,0,0,0,0,0,кирпичный,2022,1200.0
собственник,2,"Бишкек, Политех, Сухомлинова/пр.Ч.Айтматова (бывш.пр.Мира), в районе Политеха",индивид. планировка,45.0,1,хорошее,0,0,обмен не предлагать,проводной,1,0,пустая,ламинат,2.9796183723797784,0,нет,бронированная,паркинг,62000,5489480,42.8463,74.585,Бишкек,1,4,0,0,0,0,0,0,0,0,0,0,0,0,0,0,кирпичный,2022,1377.7777777777778
собственник,3,"Бишкек, Магистраль,  ул. Токомбаева/Куттубаева",элитка,113.0,1,не достроено,0,0,обмен не предлагать,adsl,1,1,пустая,дерево,3.0,0,раздельный,бронированная,паркинг,152550,13506777,42.8152,74.622,Бишкек,1,18,0,0,0,0,0,0,0,0,0,0,0,0,0,0,монолитный,2025,1350.0
собственник,2,"Бишкек, КНУ, Фрунзе 571/Уметалиева",элитка,55.0,1,под самоотделку (псо),0,0,обмен не предлагать,нет,1,1,пустая,ламинат,3.3,1,совмещенный,бронированная,паркинг,69800,6180092,42.8821,74.5817,Бишкек,10,12,1,1,1,0,1,0,1,1,1,0,1,0,0,0,монолитный,2024,1269.090909090909
собственник,1,"Бишкек, Московская - Уметалиева, Манасчи Сагынбая 221/район улиц Токтогула-Турусбекова (тихий центр)",индивид. планировка,30.0,1,хорошее,0,0,обмен не предлагать,проводной,1,0,пустая,ламинат,2.9796183723797784,0,нет,бронированная,паркинг,48500,4294190,42.8721,74.5832,Бишкек,1,4,0,0,0,0,0,0,0,0,0,0,0,0,0,0,кирпичный,2022,1616.6666666666667
собственник,2,"Бишкек, Аламедин-1 м-н, в микрорайоне Аламедин-1 59/за рынком Чынар",105 серия,52.0,1,хорошее,0,0,обмен не предлагать,проводной,1,1,полностью меблирована,ламинат,2.9796183723797784,0,раздельный,бронированная,паркинг,56000,4958240,42.8765,74.6889,Бишкек,5,5,0,0,0,0,0,0,0,0,0,0,0,0,0,0,панельный,2022,1076.923076923077
собственник,2,"Бишкек, Гагарина, Тимура Фрунзе/Гагарина",элитка,64.0,1,под самоотделку (псо),0,0,обмен не предлагать,нет,1,1,пустая,ламинат,3.0,0,раздельный,бронированная,паркинг,57700,5108758,42.8516,74.5347,Бишкек,8,10,1,1,1,0,1,0,0,0,1,0,0,0,1,0,монолитный,2023,901.5625
собственник,1,"Бишкек, Нижний Токольдош,  ул. Кийизбаева/Передовая (мкрн. ""Восток-5"")",элитка,47.0,1,под самоотделку (псо),0,0,обмен не предлагать,проводной,1,1,пустая,ламинат,3.0,1,совмещенный,бронированная,рядом охраняемая стоянка,44500,3940030,42.8683,74.6319,Бишкек,10,12,1,1,0,0,0,0,0,0,0,0,0,0,1,0,монолитный,2023,946.8085106382979
собственник,1,"Бишкек, Гагарина, Тимура Фрунзе/Гагарина",элитка,43.0,1,под самоотделку (псо),0,0,обмен не предлагать,нет,1,1,пустая,ламинат,3.0,0,совмещенный,бронированная,паркинг,38900,3444206,42.8506,74.5324,Бишкек,10,11,1,1,0,0,1,0,0,0,0,0,0,0,1,0,монолитный,2023,904.6511627906976
собственник,1,"Бишкек, Гагарина, Тимура Фрунзе/Гагарина",элитка,40.0,1,под самоотделку (псо),0,0,обмен не предлагать,нет,1,1,пустая,ламинат,3.0,0,нет,бронированная,паркинг,40800,3612432,42.8516,74.5347,Бишкек,8,10,1,1,0,0,1,0,0,0,0,0,0,0,1,0,монолитный,2023,1020.0
собственник,2,"Бишкек, Магистраль, Магистраль/Сухэ Батора",элитка,67.0,1,под самоотделку (псо),0,0,обмен не предлагать,нет,1,1,пустая,ламинат,3.0,0,совмещенный,бронированная,паркинг,70400,6233216,42.8175,74.6107,Бишкек,16,16,1,1,0,0,0,0,0,0,0,0,0,0,0,0,монолитный,2022,1050.7462686567164
собственник,2,"Бишкек, Горького - Алма-Атинская, 7 апреля 1/1/Горького",элитка,66.0,1,под самоотделку (псо),0,0,обмен не предлагать,нет,1,1,пустая,ламинат,3.0,0,раздельный,бронированная,паркинг,52500,4648350,42.8585,74.6315,Бишкек,3,10,1,1,1,0,1,0,0,0,0,0,0,0,1,0,монолитный,2024,795.4545454545455
собственник,2,"Бишкек, Московская - Белинка",индивид. планировка,50.0,1,хорошее,0,0,обмен не предлагать,нет,0,0,пустая,ламинат,2.9796183723797784,0,нет,бронированная,нет,75000,6640500,42.8683,74.5879,Бишкек,5,5,0,0,0,0,0,0,0,0,0,0,0,0,0,0,кирпичный,2022,1500.0
собственник,2,"Бишкек, Военторг, Манасчы Сагынбая 168",элитка,67.0,1,не достроено,0,0,обмен не предлагать,нет,0,0,пустая,ламинат,3.2,0,нет,бронированная,нет,63650,5635571,42.8716,74.5945,Бишкек,2,17,0,0,0,0,0,0,0,0,0,0,0,0,1,0,кирпичный,2025,950.0
агент,3,"Бишкек, 8 м-н, 7 микрорайон",106 серия,68.0,1,евроремонт,0,0,обмен не предлагать,проводной,1,1,пустая,ламинат,3.0,1,раздельный,бронированная,паркинг,82500,7304550,42.8298,74.6119,Бишкек,8,9,1,1,0,1,1,0,1,0,1,0,1,0,0,0,панельный,2022,1213.235294117647
собственник,2,"Бишкек, 5 м-н 8",104 серия,48.0,1,евроремонт,0,0,обмен не предлагать,оптика,1,1,частично меблирована,паркет,2.9796183723797784,0,нет,бронированная,паркинг,69500,6153530,42.8345,74.6231,Бишкек,2,4,1,0,0,0,1,0,0,0,1,0,1,0,0,0,панельный,2022,1447.9166666666667
агент,2,"Бишкек, Мед. академия",индивид. планировка,48.0,1,хорошее,0,1,обмен не предлагать,проводной,1,1,полностью меблирована,ламинат,2.9796183723797784,0,раздельный,бронированная,паркинг,66000,5843640,42.8399,74.6033,Бишкек,4,5,1,0,0,0,0,0,0,0,0,0,0,0,0,0,кирпичный,2022,1375.0
агент,3,"Бишкек, Магистраль, Байтик Баатыра/Токомбаева",элитка,100.0,1,под самоотделку (псо),0,0,обмен не предлагать,нет,1,1,пустая,ламинат,3.0,0,2 с/у и более,бронированная,рядом охраняемая стоянка,113000,10005020,42.819,74.6048,Бишкек,2,16,0,1,1,0,0,0,0,0,0,0,0,0,0,0,монолитный,2024,1130.0
агент,1,"Бишкек, Джал 15 м-н, Ахунбаева/Тыналиева",элитка,41.45,1,евроремонт,0,0,обмен не предлагать,нет,1,1,пустая,ламинат,3.0,0,совмещенный,бронированная,паркинг,55500,4913970,42.8451,74.5654,Бишкек,11,14,1,0,1,0,0,0,0,0,0,0,0,0,0,0,монолитный,2023,1338.9626055488538
агент,4,"Бишкек, Арча-Бешик ж/м, Актан 64 (пересек) Куюкова",индивид. планировка,84.0,1,евроремонт,0,0,обмен не предлагать,оптика,1,1,частично меблирована,ламинат,3.0,0,совмещенный,бронированная,нет,89880,7957975,42.8364,74.546,Бишкек,5,7,0,0,0,0,0,0,0,0,0,0,0,0,1,0,монолитный,2023,1070.0
агент,1,"Бишкек, Керемет ж/м",элитка,39.0,1,не достроено,1,0,обмен не предлагать,оптика,1,1,пустая,ламинат,2.9796183723797784,0,совмещенный,бронированная,паркинг,26520,2348081,42.8845,74.5382,Бишкек,4,5,0,0,0,0,0,0,0,0,0,0,0,0,0,0,кирпичный,2024,680.0
агент,3,"Бишкек, Шлагбаум",хрущевка,66.0,1,хорошее,0,1,обмен не предлагать,оптика,1,1,частично меблирована,ламинат,2.9796183723797784,0,совмещенный,бронированная,нет,59500,5268130,42.8734,74.5579,Бишкек,2,2,0,0,0,0,0,0,0,0,1,0,1,0,0,0,кирпичный,2022,901.5151515151515
агент,2,"Бишкек, Восток-5 м-н, 7 апреля/Мамбетова",106 серия,52.0,1,хорошее,0,0,обмен не предлагать,нет,0,0,пустая,ламинат,2.9796183723797784,0,нет,бронированная,нет,69000,6109260,42.8703,74.6344,Бишкек,8,9,0,0,0,0,0,0,0,0,0,0,0,0,0,0,панельный,2022,1326.923076923077
собственник,1,"Бишкек, Ден Сяопина - Фучика, ул. Фучика, 38/2 / ул. Рыскулова",элитка,35.0,1,евроремонт,0,0,обмен не предлагать,нет,0,0,пустая,ламинат,2.8,1,совмещенный,металлическая,паркинг,43500,3851490,42.8813,74.5612,Бишкек,7,9,0,0,0,0,0,0,0,0,0,0,0,0,0,0,монолитный,2022,1242.857142857143
агент,2,"Бишкек, Кок-Жар ж/м, ж/м Кок-Жар, ул. Куйручук 20/7",элитка,71.0,1,евроремонт,0,0,обмен не предлагать,нет,0,0,пустая,ламинат,3.0,0,нет,бронированная,нет,86000,7614440,42.8439,74.6435,Бишкек,7,10,0,0,0,0,0,0,0,0,0,0,0,0,0,0,панельный,2021,1211.2676056338028
агент,3,"Бишкек, Московская - Белинка",элитка,146.0,0,евроремонт,0,0,обмен не предлагать,нет,0,0,пустая,ламинат,2.9796183723797784,0,нет,бронированная,нет,255000,22577700,42.8675,74.5897,Бишкек,8,11,0,0,0,0,0,0,0,0,0,0,0,0,0,0,кирпичный,2012,1746.5753424657535
собственник,1,"Бишкек, АЮ Grand, ул.Анкар  1/19",элитка,43.0,1,евроремонт,0,0,обмен не предлагать,нет,0,0,пустая,ламинат,2.9796183723797784,0,нет,бронированная,паркинг,49500,4382730,42.8565,74.672,Бишкек,13,13,0,0,0,0,0,0,0,0,0,0,0,0,1,0,кирпичный,2022,1151.1627906976744
агент,1,"Бишкек, Асанбай м-н",элитка,46.0,1,евроремонт,0,0,обмен не предлагать,нет,0,0,пустая,ламинат,2.9796183723797784,0,нет,бронированная,нет,63000,5578020,42.8177,74.6251,Бишкек,9,12,0,0,0,0,0,0,0,0,0,0,0,0,0,0,кирпичный,2022,1369.5652173913043
собственник,3,"Бишкек, Филармония, Абдумомунова 288/Манаса",элитка,106.0,1,хорошее,0,0,обмен не предлагать,нет,1,0,частично меблирована,ламинат,2.9796183723797784,0,нет,бронированная,паркинг,163000,14432020,42.88,74.5898,Бишкек,6,10,1,1,1,1,1,0,0,0,1,0,1,0,1,0,кирпичный,2014,1537.7358490566037
агент,3,"Бишкек, Эне-Сай ж/м, Алмаатинская 410",индивид. планировка,54.0,1,среднее,0,0,обмен не предлагать,нет,0,0,полностью меблирована,дерево,2.9796183723797784,0,раздельный,деревянная,нет,36500,3231710,42.9223,74.6326,Бишкек,1,2,0,0,0,0,0,0,0,0,0,0,0,0,0,0,кирпичный,2022,675.925925925926
агент,2,"Бишкек, 12 м-н, Алма-Атинская/Южная магистраль",элитка,68.0,1,евроремонт,0,0,обмен не предлагать,нет,0,0,пустая,ламинат,2.8,0,нет,бронированная,нет,75000,6640500,42.8127,74.6419,Бишкек,1,9,0,0,0,0,0,0,0,0,0,0,0,0,0,0,кирпичный,2022,1102.9411764705883
агент,3,"Бишкек, Джал-29 м-н, Садырбаева 258а",элитка,77.0,1,под самоотделку (псо),0,0,обмен не предлагать,нет,0,0,пустая,ламинат,3.0,0,нет,бронированная,паркинг,85000,7525900,42.8306,74.5657,Бишкек,8,12,0,1,0,0,0,0,0,0,0,0,0,0,0,0,монолитный,2022,1103.8961038961038
собственник,5,"Бишкек, Магистраль, Куттубаева/Южная Магистраль",пентхаус,141.0,0,под самоотделку (псо),0,0,обмен не предлагать,нет,0,0,пустая,ламинат,3.2,0,нет,бронированная,нет,130000,11510200,42.8163,74.6224,Бишкек,11,12,0,0,0,0,0,0,0,0,0,0,0,0,0,0,кирпичный,2024,921.9858156028369
собственник,1,"Бишкек, Средний Джал м-н, мкр. Джал-23 18/2",индивид. планировка,46.0,1,евроремонт,0,0,обмен не предлагать,проводной,1,1,полностью меблирована,ламинат,3.0,0,совмещенный,бронированная,паркинг,62500,5533750,42.8407,74.565,Бишкек,14,14,0,1,0,0,0,0,0,0,1,0,1,0,1,0,монолитный,2022,1358.695652173913
собственник,1,"Бишкек, Магистраль, пр. Ч.Айтматова - Масалиева",108 серия,48.0,1,евроремонт,0,0,обмен не предлагать,нет,1,1,пустая,ламинат,2.8,0,совмещенный,бронированная,нет,59800,5294692,42.8236,74.5906,Бишкек,6,9,0,0,0,0,0,0,0,0,0,0,0,0,0,0,панельный,2023,1245.8333333333333
агент,2,"Бишкек, Магистраль, Сухэ-Батора/Токомбаева",элитка,68.0,1,евроремонт,0,0,обмен не предлагать,нет,0,0,пустая,ламинат,3.0,0,нет,бронированная,нет,128000,11333120,42.8195,74.6155,Бишкек,11,12,0,0,0,0,0,0,0,0,0,0,0,0,0,0,монолитный,2022,1882.3529411764705
агент,3,"Лебединовка, Жибек жолу/победы",104 серия,61.0,1,хорошее,0,0,обмен не предлагать,adsl,1,0,пустая,ламинат,2.9796183723797784,0,раздельный,бронированная,нет,62900,5569166,42.8845,74.6819,Бишкек,1,4,0,0,0,0,0,0,0,0,1,0,1,0,0,0,кирпичный,2022,1031.1475409836066
собственник,2,"Бишкек, Магистраль, Ч. Айтматова/Масалиева",108 серия,75.0,1,евроремонт,0,0,обмен не предлагать,нет,1,1,пустая,ламинат,2.8,0,2 с/у и более,бронированная,нет,102500,9075350,42.8259,74.5903,Бишкек,3,9,1,1,0,0,0,0,0,0,0,0,0,0,0,0,монолитный,2022,1366.6666666666667
агент,3,"Бишкек, Джал-23 м-н (Нижний Джал), Ахунбаева 198",элитка,103.0,1,евроремонт,0,0,обмен не предлагать,нет,0,0,частично меблирована,ламинат,3.2,0,раздельный,бронированная,нет,135000,11952900,42.8434,74.5663,Бишкек,6,10,0,0,0,0,0,0,0,0,1,0,1,0,0,0,монолитный,2015,1310.6796116504854
агент,2,"Бишкек, Магистраль, Сухэ Батора и Токомбаева",элитка,69.0,1,под самоотделку (псо),0,0,обмен не предлагать,нет,0,0,пустая,ламинат,2.9796183723797784,0,раздельный,бронированная,нет,63000,5578020,42.8178,74.6138,Бишкек,14,16,0,0,0,0,0,0,0,0,0,0,0,0,0,1,монолитный,2023,913.0434782608696
агент,1,"Бишкек, Магистраль, Сухэ Батора/Южная Магистраль",элитка,36.0,1,под самоотделку (псо),0,0,обмен не предлагать,нет,0,0,пустая,ламинат,3.0,0,совмещенный,бронированная,нет,36200,3205148,42.8217,74.6172,Бишкек,6,14,0,0,0,0,0,0,0,0,0,0,0,0,1,0,монолитный,2022,1005.5555555555555
агент,4,"Бишкек, Тунгуч м-н, Тунгуч 40",элитка,108.0,1,евроремонт,0,0,обмен не предлагать,нет,1,1,пустая,ламинат,2.8,0,раздельный,бронированная,нет,130000,11510200,42.8535,74.6879,Бишкек,9,12,0,0,0,0,0,0,0,0,0,1,1,0,0,0,монолитный,2019,1203.7037037037037
агент,2,"Бишкек, 7 м-н",106 серия,52.0,1,среднее,0,0,обмен не предлагать,нет,0,1,пустая,ламинат,2.9796183723797784,0,раздельный,бронированная,нет,79500,7038930,42.8344,74.6189,Бишкек,7,9,0,0,0,0,0,0,0,0,0,0,0,0,0,0,панельный,2022,1528.8461538461538
агент,2,"Бишкек, Асанбай м-н, Токомбаева/Куттубаева",элитка,56.0,1,под самоотделку (псо),0,0,обмен не предлагать,нет,0,0,пустая,ламинат,3.0,0,раздельный,бронированная,нет,70000,6197800,42.8176,74.6247,Бишкек,5,12,0,0,0,0,0,0,0,0,0,0,0,0,1,0,монолитный,2022,1250.0
агент,2,"Бишкек, Магистраль, Сухэ Батора/Токомбаева",элитка,85.0,1,евроремонт,0,0,обмен не предлагать,нет,0,0,пустая,ламинат,3.0,0,нет,бронированная,нет,115000,10182100,42.8213,74.6168,Бишкек,4,14,0,0,0,0,0,0,0,0,0,0,0,0,0,0,кирпичный,2022,1352.9411764705883
собственник,1,"Бишкек, КНУ, Уметалиева-Фрунзе 155",элитка,43.0,1,евроремонт,0,0,обмен не предлагать,нет,1,0,пустая,ламинат,3.0,0,совмещенный,бронированная,нет,64000,5666560,42.883,74.5823,Бишкек,7,10,0,0,0,0,0,0,0,0,1,0,1,0,1,0,монолитный,2022,1488.3720930232557
собственник,2,"Бишкек, Верхний Джал м-н",106 серия,63.2,1,хорошее,0,1,обмен не предлагать,проводной,1,1,полностью меблирована,ламинат,2.9796183723797784,0,раздельный,бронированная,рядом охраняемая стоянка,86000,7614440,42.8371,74.566,Бишкек,5,9,0,0,0,0,0,0,0,0,1,0,1,0,0,0,панельный,2008,1360.759493670886
агент,4,"Бишкек, Госрегистр, пр. Чингиза Айтматова 4",элитка,112.0,1,евроремонт,0,0,обмен не предлагать,нет,0,0,полностью меблирована,ламинат,3.0,0,раздельный,бронированная,нет,182000,16114280,42.8626,74.5883,Бишкек,10,12,0,0,0,0,0,0,0,0,0,0,1,0,0,0,монолитный,2019,1625.0
собственник,2,"Бишкек, 7 м-н",106 серия,52.0,1,среднее,0,0,обмен не предлагать,нет,0,1,пустая,ламинат,2.9796183723797784,0,раздельный,бронированная,нет,79500,7038930,42.8343,74.6188,Бишкек,7,9,0,0,0,0,0,0,0,0,1,0,1,0,0,0,панельный,2022,1528.8461538461538
агент,3,"Бишкек, Московская - Уметалиева, Шевченко 56",элитка,80.0,1,под самоотделку (псо),0,0,обмен не предлагать,нет,0,1,пустая,ламинат,3.0,0,раздельный,бронированная,нет,80000,7083200,42.8718,74.5821,Бишкек,5,12,0,0,0,0,0,0,0,0,0,0,0,0,0,0,монолитный,2024,1000.0
агент,4,"Бишкек, Тунгуч м-н, Тунгуч 40",элитка,108.0,1,евроремонт,0,0,обмен не предлагать,нет,1,1,частично меблирована,ламинат,2.8,0,раздельный,бронированная,нет,130000,11510200,42.8535,74.6879,Бишкек,9,12,0,0,0,0,0,0,0,0,0,1,1,0,0,0,монолитный,2019,1203.7037037037037
агент,4,"Бишкек, Магистраль",индивид. планировка,155.0,0,хорошее,0,0,обмен не предлагать,нет,0,0,пустая,ламинат,2.9796183723797784,0,нет,бронированная,нет,150000,13281000,42.8284,74.6071,Бишкек,9,10,0,0,0,0,0,0,0,0,0,0,0,0,0,0,кирпичный,2022,967.741935483871
собственник,1,"Бишкек, Горького - Алма-Атинская, Горького",элитка,38.18,1,под самоотделку (псо),1,0,рассмотрю варианты,оптика,0,1,пустая,ламинат,3.0,1,совмещенный,бронированная,паркинг,36000,3187440,42.8568,74.6308,Бишкек,2,12,1,1,1,0,0,0,1,0,0,0,0,0,0,0,монолитный,2024,942.9020429544264
агент,3,"Бишкек, Душанбинка",элитка,107.2,1,евроремонт,0,0,обмен не предлагать,нет,0,1,пустая,ламинат,2.9796183723797784,0,раздельный,бронированная,нет,220000,19478800,42.8495,74.5949,Бишкек,2,3,0,1,1,0,0,0,0,0,0,0,0,0,0,0,кирпичный,2015,2052.2388059701493
агент,2,"Бишкек, Душанбинка",элитка,59.6,1,евроремонт,0,0,обмен не предлагать,нет,0,0,пустая,ламинат,2.9796183723797784,0,нет,бронированная,нет,115000,10182100,42.8497,74.5949,Бишкек,2,3,0,1,1,0,0,0,0,0,0,0,0,0,0,0,кирпичный,2015,1929.5302013422818
агент,3,"Бишкек, Восток-5 м-н",105 серия,62.0,1,хорошее,0,1,обмен не предлагать,нет,1,1,частично меблирована,линолеум,2.8,0,раздельный,бронированная,рядом охраняемая стоянка,85000,7525900,42.8702,74.6361,Бишкек,3,5,1,0,0,0,0,0,0,0,0,0,0,0,0,0,панельный,1987,1370.967741935484
агент,1,"Бишкек, Улан-2 м-н",106 серия,45.0,1,хорошее,0,1,обмен не предлагать,проводной,1,1,частично меблирована,ламинат,2.9796183723797784,1,совмещенный,металлическая,паркинг,51000,4515540,42.8452,74.6335,Бишкек,9,9,1,1,0,0,0,0,0,0,1,0,1,0,1,0,панельный,2016,1133.3333333333333
агент,4,"Бишкек, Дворец спорта, Абдумомунова 244",элитка,122.0,1,евроремонт,0,0,обмен не предлагать,проводной,0,1,полностью меблирована,ламинат,3.0,0,2 с/у и более,бронированная,рядом охраняемая стоянка,185000,16379900,42.8799,74.594,Бишкек,11,12,1,1,1,0,0,0,0,0,1,0,1,0,1,0,монолитный,2018,1516.3934426229507
агент,2,"Бишкек, 4 м-н",104 серия,46.0,1,хорошее,0,0,обмен не предлагать,проводной,1,0,частично меблирована,ламинат,2.9796183723797784,1,совмещенный,металлическая,рядом охраняемая стоянка,59500,5268130,42.8395,74.6268,Бишкек,1,4,1,0,0,1,0,0,0,0,1,0,1,0,0,0,панельный,2022,1293.4782608695652
агент,3,"Бишкек, Джальская больница",индивид. планировка,123.0,1,хорошее,0,0,обмен не предлагать,проводной,1,0,полностью меблирована,ламинат,2.9796183723797784,1,2 с/у и более,металлическая,рядом охраняемая стоянка,160000,14166400,42.8432,74.5733,Бишкек,6,8,1,0,0,1,0,0,0,0,1,0,1,0,1,0,монолитный,2022,1300.8130081300812
агент,2,"Бишкек, Асанбай м-н, Айтиева 17/1",элитка,73.0,1,евроремонт,0,0,обмен не предлагать,проводной,1,1,полностью меблирована,ламинат,2.9796183723797784,1,раздельный,бронированная,рядом охраняемая стоянка,102000,9031080,42.8213,74.6222,Бишкек,10,10,1,1,1,0,0,0,0,0,1,0,1,0,1,0,монолитный,2015,1397.2602739726028
агент,3,"Бишкек, Молодая Гвардия",105 серия,63.0,1,хорошее,0,0,обмен не предлагать,проводной,1,1,частично меблирована,линолеум,2.9796183723797784,1,раздельный,металлическая,паркинг,89000,7880060,42.8742,74.5735,Бишкек,2,5,1,0,0,1,0,0,0,0,0,1,1,0,0,0,панельный,2022,1412.6984126984128
агент,2,"Бишкек, Асанбай м-н, Айтиева 17/1",элитка,77.0,1,евроремонт,0,0,обмен не предлагать,проводной,1,1,полностью меблирована,ламинат,2.9796183723797784,1,раздельный,бронированная,рядом охраняемая стоянка,106000,9385240,42.8213,74.6222,Бишкек,10,10,1,1,0,0,0,0,0,0,1,0,1,0,1,0,монолитный,2015,1376.6233766233765
агент,1,"Бишкек, ТЭЦ",индивид. планировка,32.0,1,среднее,0,0,обмен не предлагать,проводной,1,0,частично меблирована,ламинат,2.9796183723797784,1,совмещенный,металлическая,рядом охраняемая стоянка,35000,3098900,42.8781,74.6574,Бишкек,2,2,1,0,0,0,0,0,0,0,1,0,1,0,0,0,кирпичный,2022,1093.75
агент,5,"Бишкек, Асанбай м-н, Айтиева 17/1",элитка,165.0,1,евроремонт,0,0,обмен не предлагать,проводной,1,1,полностью меблирована,ламинат,2.9796183723797784,1,2 с/у и более,бронированная,рядом охраняемая стоянка,207000,18327780,42.8213,74.6222,Бишкек,10,10,1,1,0,0,0,0,0,1,1,0,1,0,1,0,монолитный,2015,1254.5454545454545
агент,2,"Бишкек, Парк Ататюрк, Ахунбаева/Шакирова",104 серия,43.0,1,евроремонт,0,0,обмен не предлагать,adsl,1,1,пустая,ламинат,2.9796183723797784,0,совмещенный,бронированная,нет,57000,5046780,42.8436,74.5963,Бишкек,4,4,0,0,0,0,0,0,0,0,1,0,1,0,0,0,кирпичный,2022,1325.5813953488373
агент,5,"Бишкек, 4 м-н",элитка,275.0,1,евроремонт,0,0,обмен не предлагать,проводной,1,1,полностью меблирована,ламинат,2.9796183723797784,1,2 с/у и более,бронированная,паркинг,350000,30989000,42.8396,74.6235,Бишкек,7,10,1,1,0,0,0,0,0,1,1,0,1,0,1,0,монолитный,2022,1272.7272727272727
агент,2,"Бишкек, АЮ Grand, Ч.Валиханова 2в",индивид. планировка,42.0,1,евроремонт,0,0,обмен не предлагать,adsl,1,0,полностью меблирована,ламинат,2.8,0,совмещенный,бронированная,нет,46500,4117110,42.8526,74.6774,Бишкек,3,4,0,0,0,0,0,0,0,0,1,0,1,0,0,0,кирпичный,2022,1107.142857142857
собственник,4,"Бишкек, ЦУМ, Шопокова 101/1/Токтогула",элитка,182.0,1,евроремонт,0,0,обмен не предлагать,проводной,1,1,полностью меблирована,паркет,3.0,1,2 с/у и более,бронированная,паркинг,220000,19478800,42.8726,74.6154,Бишкек,7,10,1,1,0,0,1,0,0,0,0,0,0,0,0,0,кирпичный,2011,1208.7912087912089
собственник,2,"Бишкек, Аламедин-1 м-н 70",105 серия,52.0,1,среднее,0,0,обмен не предлагать,проводной,1,1,пустая,линолеум,2.9796183723797784,0,раздельный,бронированная,нет,65500,5799370,42.8791,74.6891,Бишкек,1,5,0,0,0,0,0,0,0,0,0,0,0,0,0,0,панельный,2022,1259.6153846153845
собственник,2,"Бишкек, Карпинка, Суюмбаева/Токтогула 51",элитка,79.13,1,под самоотделку (псо),0,0,обмен не предлагать,нет,1,1,пустая,ламинат,2.9796183723797784,0,раздельный,бронированная,паркинг,79000,6994660,42.8718,74.6247,Бишкек,9,9,0,0,0,0,0,0,0,0,0,0,0,0,1,0,монолитный,2024,998.3571338304057
агент,2,"Бишкек, Средний Джал м-н, Минжылкиева",элитка,90.0,1,евроремонт,0,0,обмен не предлагать,adsl,0,1,полностью меблирована,ламинат,2.9796183723797784,0,раздельный,бронированная,нет,97900,8668066,42.8373,74.5648,Бишкек,2,12,0,0,0,0,0,0,0,0,1,0,1,0,0,0,кирпичный,2013,1087.7777777777778
агент,1,"Бишкек, Карпинка, Суюмбаева/Токтогула 51",элитка,46.0,1,под самоотделку (псо),0,0,обмен не предлагать,нет,1,1,пустая,ламинат,2.9796183723797784,0,совмещенный,бронированная,паркинг,48000,4249920,42.8718,74.6247,Бишкек,6,9,0,0,0,0,0,0,0,0,0,0,0,0,1,0,монолитный,2024,1043.4782608695652
агент,1,"Бишкек, АЮ Grand,  ул.Анкар  1/19/Валиханова",106 серия,44.0,1,евроремонт,0,0,обмен не предлагать,нет,0,0,частично меблирована,ламинат,2.9796183723797784,0,нет,бронированная,нет,54000,4781160,42.8565,74.672,Бишкек,14,14,0,0,0,0,0,0,0,0,0,0,0,0,0,0,монолитный,2024,1227.2727272727273
собственник,2,"Бишкек, Бишкек-Парк, Токтогула 165/Исанова",элитка,80.0,1,евроремонт,0,0,обмен не предлагать,проводной,1,1,полностью меблирована,ламинат,3.0,1,раздельный,бронированная,рядом охраняемая стоянка,130000,11510200,42.873,74.5901,Бишкек,5,16,1,1,1,1,0,1,1,1,1,0,1,0,1,0,монолитный,2018,1625.0
агент,1,"Бишкек, Аламедин-1 м-н",105 серия,32.0,1,хорошее,0,0,обмен не предлагать,нет,0,1,пустая,ламинат,2.9796183723797784,0,нет,бронированная,нет,39900,3532746,42.8749,74.6877,Бишкек,8,9,0,0,0,0,0,0,0,0,1,0,1,0,0,0,панельный,2022,1246.875
агент,2,"Бишкек, Московская - Белинка, Манаса/Боконбаева",индивид. планировка,55.0,1,среднее,0,0,обмен не предлагать,нет,1,1,пустая,ламинат,2.9796183723797784,0,раздельный,бронированная,нет,65000,5755100,42.8668,74.588,Бишкек,4,9,0,0,0,0,0,0,0,0,1,0,1,0,0,0,монолитный,2022,1181.8181818181818
агент,1,"Бишкек, Горького - Алма-Атинская, Анкара/7 апреля",элитка,39.0,1,евроремонт,0,0,обмен не предлагать,нет,0,0,частично меблирована,ламинат,3.0,0,нет,бронированная,нет,48000,4249920,42.8573,74.6413,Бишкек,3,9,0,0,0,0,0,0,0,0,0,0,0,0,0,0,монолитный,2021,1230.7692307692307
агент,3,"Бишкек, Магистраль, Куттубаева/Южная Магистраль",элитка,90.0,1,евроремонт,0,0,обмен не предлагать,нет,1,1,полностью меблирована,ламинат,3.0,0,раздельный,бронированная,нет,117000,10359180,42.8129,74.6188,Бишкек,12,13,0,0,1,0,0,0,0,0,0,0,0,0,0,0,монолитный,2023,1300.0
агент,2,"Бишкек, Молодая Гвардия, Молодая Гвардия 7",сталинка,55.0,1,евроремонт,0,0,обмен не предлагать,нет,1,1,полностью меблирована,ламинат,3.0,0,раздельный,бронированная,нет,72000,6374880,42.8692,74.5756,Бишкек,2,3,1,0,0,0,0,0,0,0,0,1,1,0,1,0,кирпичный,2022,1309.090909090909
агент,4,"Бишкек, Баха, Валдайская 1",элитка,160.0,1,евроремонт,0,0,обмен не предлагать,нет,1,0,полностью меблирована,ламинат,3.0,0,2 с/у и более,бронированная,нет,189000,16734060,42.8416,74.5626,Бишкек,10,10,0,0,0,0,0,0,0,0,1,0,1,1,1,0,монолитный,2020,1181.25
собственник,2,"Бишкек, Матросова",элитка,78.0,0,под самоотделку (псо),0,0,обмен не предлагать,нет,0,0,пустая,ламинат,2.9796183723797784,0,2 с/у и более,бронированная,рядом охраняемая стоянка,93900,8313906,42.8481,74.6184,Бишкек,3,3,0,0,0,0,0,0,0,0,0,0,0,0,0,0,монолитный,2024,1203.8461538461538
агент,3,"Бишкек, Магистраль, Асанбай, Сухэ-Батора",элитка,104.76,1,под самоотделку (псо),0,0,обмен не предлагать,нет,0,0,пустая,ламинат,3.3,0,нет,бронированная,нет,141426,12521858,42.8189,74.6133,Бишкек,11,16,0,0,0,0,0,0,0,0,0,0,0,0,0,0,монолитный,2022,1350.0
агент,1,"Бишкек, Магистраль, Ч. Айтматова/Масалиева",108 серия,48.6,1,евроремонт,0,0,обмен не предлагать,нет,1,1,пустая,ламинат,2.8,0,совмещенный,бронированная,нет,59500,5268130,42.8249,74.591,Бишкек,9,10,1,1,0,0,0,0,1,0,0,0,0,0,0,0,монолитный,2022,1224.2798353909466
агент,3,"Бишкек, Душанбинка",элитка,118.0,1,евроремонт,0,0,обмен не предлагать,нет,1,1,полностью меблирована,ламинат,2.9796183723797784,0,раздельный,бронированная,нет,220000,19478800,42.8496,74.5956,Бишкек,2,3,1,1,1,0,0,0,0,0,1,0,1,0,1,0,кирпичный,2015,1864.406779661017
агент,3,"Бишкек, ТЭЦ",элитка,90.0,0,под самоотделку (псо),0,0,обмен не предлагать,нет,0,0,пустая,ламинат,2.9796183723797784,0,нет,бронированная,нет,63000,5578020,42.8776,74.6503,Бишкек,6,10,0,0,0,0,0,0,0,0,0,0,0,0,0,0,кирпичный,2022,700.0
агент,2,"Бишкек, Душанбинка",элитка,60.0,1,евроремонт,0,0,обмен не предлагать,нет,1,0,пустая,ламинат,3.0,0,раздельный,бронированная,нет,120000,10624800,42.8495,74.5956,Бишкек,2,3,0,1,1,0,0,0,0,0,1,0,1,0,1,0,кирпичный,2015,2000.0
агент,3,"Бишкек, Карпинка",104 серия,58.0,1,хорошее,0,0,обмен не предлагать,нет,1,1,частично меблирована,ламинат,2.9796183723797784,0,совмещенный,бронированная,нет,70500,6242070,42.88,74.6194,Бишкек,5,5,1,0,0,0,0,0,0,0,0,0,0,0,0,0,панельный,2022,1215.5172413793102
агент,3,"Бишкек, Дордой Плаза",элитка,141.0,1,евроремонт,0,0,обмен не предлагать,нет,0,0,полностью меблирована,плитка,3.2,0,раздельный,бронированная,нет,190350,16853589,42.8734,74.6194,Бишкек,7,15,1,1,1,0,0,0,0,1,1,0,1,0,1,0,кирпичный,2010,1350.0
агент,3,"Бишкек, Магистраль, Токомбаева 29",элитка,63.0,1,под самоотделку (псо),0,0,обмен не предлагать,нет,0,0,пустая,ламинат,3.0,0,раздельный,бронированная,паркинг,78750,6972525,42.823,74.6126,Бишкек,5,8,0,0,0,0,0,0,0,0,0,0,0,0,0,0,монолитный,2024,1250.0
собственник,1,"Бишкек, 10 м-н 19",105 серия,34.2,1,среднее,0,0,рассмотрю варианты,проводной,1,0,частично меблирована,линолеум,2.9796183723797784,1,совмещенный,металлическая,нет,51000,4515540,42.832,74.6014,Бишкек,4,5,1,0,0,0,0,0,0,0,1,0,1,0,1,0,панельный,2022,1491.2280701754385
агент,1,"Бишкек, Аламедин-1 м-н, Ауэзова",105 серия,43.0,1,хорошее,0,0,обмен не предлагать,нет,0,0,пустая,ламинат,2.9796183723797784,0,нет,бронированная,нет,46000,4072840,42.8766,74.6897,Бишкек,8,9,0,0,0,0,0,0,0,0,0,0,0,0,0,0,панельный,2022,1069.7674418604652
агент,3,"Бишкек, Юг-2 м-н",105 серия,80.0,1,среднее,0,0,обмен не предлагать,нет,1,1,пустая,ламинат,2.9796183723797784,0,раздельный,бронированная,нет,81000,7171740,42.8578,74.6089,Бишкек,8,9,0,0,0,0,0,0,0,0,0,0,0,0,0,0,панельный,2022,1012.5
собственник,3,"Бишкек, 7 м-н, 7 мкр., ул. Юнусалиева",элитка,76.8,1,под самоотделку (псо),0,0,обмен не предлагать,нет,1,1,пустая,ламинат,3.3,0,нет,бронированная,нет,138000,12218520,42.829,74.6218,Бишкек,8,15,1,1,1,0,0,1,1,1,0,0,0,0,1,0,монолитный,2022,1796.875
агент,2,"Бишкек, Физкультурный, Пудовкина/Скрябина",хрущевка,41.0,1,хорошее,0,0,обмен не предлагать,нет,1,1,пустая,ламинат,2.9796183723797784,0,совмещенный,бронированная,нет,55500,4913970,42.8482,74.6157,Бишкек,3,3,0,0,0,0,0,0,0,0,0,0,0,0,0,0,кирпичный,2022,1353.658536585366
агент,2,"Бишкек, Кок-Жар ж/м, Алматинка 3/Медерова",элитка,74.0,1,хорошее,0,0,обмен не предлагать,нет,1,1,полностью меблирована,ламинат,2.9796183723797784,0,раздельный,бронированная,нет,78000,6906120,42.8512,74.6348,Бишкек,5,9,1,1,0,0,0,0,0,0,0,0,1,1,1,0,кирпичный,2017,1054.054054054054
агент,1,"Бишкек, Карпинка",104 серия,36.0,1,хорошее,0,0,обмен не предлагать,нет,1,1,пустая,ламинат,2.9796183723797784,0,совмещенный,бронированная,нет,53500,4736890,42.8677,74.6233,Бишкек,1,5,0,0,0,0,0,0,0,0,0,0,0,0,0,0,панельный,2022,1486.111111111111
агент,3,"Бишкек, Московская - Уметалиева, Киевская/Турусбекова",элитка,76.0,1,хорошее,0,0,обмен не предлагать,нет,0,0,пустая,ламинат,2.9796183723797784,0,совмещенный,бронированная,нет,89000,7880060,42.8753,74.584,Бишкек,10,10,0,0,0,0,0,0,0,0,0,0,0,0,0,0,кирпичный,2022,1171.0526315789473
агент,3,"Бишкек, Баха",индивид. планировка,70.0,1,среднее,0,0,обмен не предлагать,нет,0,0,пустая,ламинат,2.9796183723797784,0,раздельный,бронированная,нет,65000,5755100,42.8454,74.564,Бишкек,1,6,0,0,0,0,0,0,0,0,0,0,0,0,0,0,кирпичный,2022,928.5714285714286
агент,1,"Бишкек, Политех, Джунусалиева 66/Ахунбаева",хрущевка,30.0,1,среднее,0,0,обмен не предлагать,нет,1,1,пустая,ламинат,2.9796183723797784,0,совмещенный,бронированная,нет,45800,4055132,42.8449,74.5812,Бишкек,3,4,0,0,0,0,0,0,0,0,0,0,0,0,0,0,кирпичный,2022,1526.6666666666667
агент,3,"Бишкек, Военторг, Исанова 45",элитка,86.0,1,евроремонт,0,0,обмен не предлагать,нет,0,0,пустая,ламинат,3.0,0,нет,бронированная,нет,163000,14432020,42.8718,74.5916,Бишкек,4,12,0,0,0,0,0,0,0,0,0,0,0,0,0,0,монолитный,2017,1895.3488372093022
агент,1,"Бишкек, Кара-Жыгач ж/м",элитка,47.0,1,евроремонт,0,0,обмен не предлагать,нет,1,0,пустая,ламинат,2.9796183723797784,0,раздельный,бронированная,нет,53500,4736890,42.8592,74.6533,Бишкек,3,5,0,0,0,0,0,0,0,0,1,0,1,0,1,0,кирпичный,2024,1138.2978723404256
агент,2,"Бишкек, Магистраль, Байтик Баатыра (недалеко от Южных ворот)",элитка,80.0,1,евроремонт,0,0,обмен не предлагать,нет,0,1,частично меблирована,ламинат,3.0,1,2 с/у и более,бронированная,паркинг,136000,12041440,42.8171,74.6059,Бишкек,5,14,1,1,1,0,0,1,0,0,0,0,0,0,0,0,монолитный,2022,1700.0
агент,1,"Бишкек, Магистраль,  ул. Токомбаева/Куттубаева",элитка,48.0,1,под самоотделку (псо),0,0,обмен не предлагать,нет,0,0,пустая,ламинат,2.9796183723797784,0,нет,бронированная,нет,74000,6551960,42.8167,74.6245,Бишкек,8,18,0,0,0,0,0,0,0,0,0,0,0,0,0,0,монолитный,2025,1541.6666666666667
агент,1,"Бишкек, Горького - Алма-Атинская, 7 апреля 1/1/Горького",элитка,41.0,1,под самоотделку (псо),0,0,обмен не предлагать,нет,0,0,пустая,ламинат,3.0,0,нет,бронированная,нет,37000,3275980,42.8585,74.6315,Бишкек,5,10,0,0,0,0,0,0,0,0,0,0,0,0,0,0,монолитный,2022,902.439024390244
агент,3,"Бишкек, 6 м-н",104 серия,58.0,1,хорошее,0,0,обмен не предлагать,нет,0,0,пустая,ламинат,2.9796183723797784,0,нет,бронированная,нет,81000,7171740,42.8237,74.626,Бишкек,2,4,0,0,0,0,0,0,0,0,0,0,0,0,0,0,панельный,2022,1396.551724137931
собственник,3,"Бишкек, Гагарина, Кривоносова/Айни-Кривоносова",105 серия,63.0,1,евроремонт,0,0,обмен не предлагать,проводной,1,1,частично меблирована,ламинат,2.8,1,раздельный,бронированная,рядом охраняемая стоянка,77000,6817580,42.8489,74.5406,Бишкек,5,5,1,0,0,0,0,0,0,0,1,0,1,0,0,0,панельный,2022,1222.2222222222222
агент,2,"Бишкек, ТЭЦ",хрущевка,41.0,1,хорошее,0,0,обмен не предлагать,нет,0,0,пустая,ламинат,2.9796183723797784,0,нет,бронированная,нет,51000,4515540,42.8756,74.645,Бишкек,2,3,0,0,0,0,0,0,0,0,0,0,0,0,0,0,кирпичный,2022,1243.9024390243903
агент,2,"Бишкек, Юбилейка",сталинка,56.0,1,евроремонт,0,0,обмен не предлагать,нет,0,0,пустая,ламинат,2.9796183723797784,0,нет,бронированная,нет,75000,6640500,42.8627,74.6061,Бишкек,2,3,0,0,0,0,0,0,0,0,0,0,0,0,0,0,кирпичный,2022,1339.2857142857142
агент,3,"Бишкек, Парк Ататюрк",104 серия,58.0,1,хорошее,0,0,обмен не предлагать,нет,0,0,пустая,ламинат,2.9796183723797784,0,нет,бронированная,нет,69500,6153530,42.8434,74.5971,Бишкек,2,4,0,0,0,0,0,0,0,0,0,0,0,0,0,0,панельный,2022,1198.2758620689656
агент,1,"Бишкек, 12 м-н, 12 мкр., ул. Токомбаева 57/1/Саякбая Каралаева",элитка,44.0,1,евроремонт,0,0,обмен не предлагать,нет,0,0,пустая,ламинат,3.0,0,нет,бронированная,нет,80000,7083200,42.8128,74.6403,Бишкек,6,13,0,0,0,0,0,0,0,0,0,0,0,0,0,0,монолитный,2023,1818.1818181818182
агент,1,"Бишкек, Чокана Валиханова - Исакеева, Исакеева/Виноградная",элитка,38.0,1,евроремонт,0,0,обмен не предлагать,нет,0,0,пустая,ламинат,2.8,0,нет,бронированная,нет,53000,4692620,42.8612,74.6673,Бишкек,10,10,0,0,0,0,0,0,0,0,0,0,0,0,0,0,монолитный,2022,1394.7368421052631
агент,3,"Бишкек, Молодая Гвардия",105 серия,80.0,1,хорошее,0,0,обмен не предлагать,нет,0,0,пустая,ламинат,2.9796183723797784,0,нет,бронированная,нет,78000,6906120,42.8759,74.5755,Бишкек,2,3,0,0,0,0,0,0,0,0,0,0,0,0,0,0,панельный,2022,975.0
агент,3,"Бишкек, КНУ, Абдымомунова/Уметалиева",элитка,70.0,1,евроремонт,0,0,обмен не предлагать,нет,0,0,пустая,ламинат,3.0,0,нет,бронированная,нет,105000,9296700,42.881,74.5813,Бишкек,2,12,0,0,0,0,0,0,0,0,0,0,0,0,0,0,монолитный,2019,1500.0
агент,3,"Бишкек, Магистраль, Байтик Баатыра (недалеко от Южных ворот)",элитка,80.0,1,евроремонт,0,0,обмен не предлагать,нет,0,0,пустая,ламинат,3.0,0,нет,бронированная,нет,140000,12395600,42.8171,74.6059,Бишкек,9,14,0,0,0,0,0,0,0,0,0,0,0,0,0,0,монолитный,2022,1750.0
агент,3,"Бишкек, 6 м-н",106 серия,69.0,1,евроремонт,0,0,обмен не предлагать,нет,0,0,пустая,ламинат,2.9796183723797784,0,нет,бронированная,нет,92500,8189950,42.8237,74.626,Бишкек,1,9,0,0,0,0,0,0,0,0,0,0,0,0,0,0,панельный,2022,1340.5797101449275
агент,3,"Бишкек, Мед. академия",хрущевка,60.0,1,хорошее,0,0,обмен не предлагать,нет,0,0,пустая,ламинат,2.9796183723797784,0,нет,бронированная,нет,77500,6861850,42.8447,74.605,Бишкек,1,4,0,0,0,0,0,0,0,0,0,0,0,0,0,0,кирпичный,2022,1291.6666666666667
агент,3,"Бишкек, Магистраль, пр. Ч. Айтматова",элитка,115.0,1,евроремонт,0,0,обмен не предлагать,нет,0,0,пустая,ламинат,3.3,0,нет,бронированная,нет,188000,16645520,42.8236,74.5858,Бишкек,10,14,0,0,0,0,0,0,0,0,0,0,0,0,0,0,панельный,2022,1634.7826086956522
агент,3,"Бишкек, Магистраль, Байтик Баатыра (недалеко от Южных ворот)",элитка,103.0,1,под самоотделку (псо),0,0,обмен не предлагать,нет,0,0,пустая,ламинат,3.0,0,нет,бронированная,нет,158000,13989320,42.8171,74.6059,Бишкек,12,14,0,0,0,0,0,0,0,0,0,0,0,0,0,0,монолитный,2022,1533.9805825242718
агент,2,"Бишкек, Магистраль, пр. Ч. Айтматова",элитка,65.0,1,евроремонт,0,0,обмен не предлагать,нет,0,0,пустая,ламинат,3.3,0,нет,бронированная,нет,112000,9916480,42.8236,74.5858,Бишкек,4,14,0,0,0,0,0,0,0,0,0,0,0,0,0,0,панельный,2022,1723.076923076923
агент,2,"Бишкек, Магистраль, Байтик Баатыра (недалеко от Южных ворот)/Жумабека",элитка,80.0,1,евроремонт,0,0,обмен не предлагать,нет,0,0,пустая,ламинат,3.0,0,нет,бронированная,нет,162000,14343480,42.8171,74.6059,Бишкек,5,14,0,0,0,0,0,0,0,0,0,0,0,0,0,0,монолитный,2022,2025.0
собственник,3,"Бишкек, 10 м-н",104 серия,58.0,0,хорошее,0,0,обмен не предлагать,проводной,0,0,пустая,ламинат,2.9796183723797784,0,нет,бронированная,нет,77000,6817580,42.832,74.6055,Бишкек,4,4,0,0,0,0,0,0,0,0,0,0,0,0,0,0,панельный,2022,1327.5862068965516
агент,2,"Бишкек, Карпинка, Суюмбаева/Токтогула",элитка,80.0,0,евроремонт,0,0,обмен не предлагать,нет,0,0,пустая,ламинат,2.9796183723797784,0,нет,бронированная,нет,115000,10182100,42.8712,74.624,Бишкек,5,9,0,0,0,0,0,0,0,0,0,0,0,0,0,0,монолитный,2023,1437.5
агент,3,"Бишкек, Сквер Тоголок Молдо, Боконбаева 152-154",элитка,82.0,1,евроремонт,0,0,обмен не предлагать,нет,0,0,пустая,ламинат,3.0,0,нет,бронированная,нет,131000,11598740,42.8673,74.5917,Бишкек,4,10,0,0,0,0,0,0,0,0,0,0,0,0,0,0,монолитный,2022,1597.560975609756
агент,2,"Бишкек, Политех",элитка,62.0,1,евроремонт,0,0,обмен не предлагать,нет,0,0,пустая,ламинат,2.9796183723797784,0,нет,бронированная,нет,85000,7525900,42.8402,74.5824,Бишкек,6,10,0,0,0,0,0,0,0,0,0,0,0,0,0,0,монолитный,2022,1370.967741935484
агент,2,"Бишкек, Магистраль, Сухе Батора/Южная Магистраль",элитка,82.78,1,под самоотделку (псо),0,0,обмен не предлагать,нет,0,0,пустая,ламинат,3.1,0,нет,бронированная,нет,79900,7074346,42.8223,74.6161,Бишкек,3,12,0,0,0,0,0,0,0,0,0,0,0,0,0,0,монолитный,2024,965.2089876781831
агент,2,"Бишкек, КНУ, Абдымомунова/Уметалиева",элитка,74.0,1,евроремонт,0,0,обмен не предлагать,нет,0,0,пустая,ламинат,3.0,0,нет,бронированная,нет,135000,11952900,42.8812,74.5812,Бишкек,7,13,0,0,0,0,0,0,0,0,0,0,0,0,0,0,монолитный,2021,1824.3243243243244
агент,3,"Бишкек, Магистраль, Куттубаева/Южная Магистраль",элитка,90.0,1,евроремонт,0,0,обмен не предлагать,нет,0,0,пустая,ламинат,3.0,0,нет,бронированная,нет,121500,10757610,42.8161,74.6228,Бишкек,5,12,0,0,0,0,0,0,0,0,0,0,0,0,0,0,монолитный,2022,1350.0
агент,2,"Бишкек, Военторг, Тоголок Молдо/Токтогула",элитка,62.0,1,евроремонт,0,0,обмен не предлагать,нет,0,0,пустая,ламинат,3.1,0,нет,бронированная,нет,93500,8278490,42.8726,74.596,Бишкек,4,14,0,0,0,0,0,0,0,0,0,0,0,0,0,0,монолитный,2021,1508.0645161290322
собственник,2,"Бишкек, Кок-Жар ж/м,  ул. 7 Апреля / Молдокулова",элитка,68.84,1,под самоотделку (псо),0,0,обмен не предлагать,нет,1,1,пустая,ламинат,3.0,0,раздельный,металлическая,рядом охраняемая стоянка,82608,7314112,42.8339,74.6399,Бишкек,5,14,0,0,0,0,0,0,0,0,0,0,0,0,0,0,монолитный,2022,1200.0
агент,2,"Бишкек, Военторг, Токтогула/Тоголок Молдо",элитка,65.0,1,евроремонт,0,0,обмен не предлагать,нет,0,0,пустая,ламинат,3.0,0,нет,бронированная,нет,130000,11510200,42.8717,74.5932,Бишкек,10,13,0,0,0,0,0,0,0,0,0,0,0,0,0,0,монолитный,2021,2000.0
агент,2,"Бишкек, 12 м-н, 12 мкр-н",элитка,62.0,1,евроремонт,0,0,обмен не предлагать,нет,0,0,пустая,ламинат,3.0,0,нет,бронированная,нет,84000,7437360,42.8113,74.6371,Бишкек,3,10,0,0,0,0,0,0,0,0,0,0,0,0,0,0,монолитный,2020,1354.8387096774193
агент,2,"Бишкек, Верхний Джал м-н",индивид. планировка,70.0,1,евроремонт,0,0,обмен не предлагать,нет,0,0,пустая,ламинат,2.9796183723797784,0,нет,бронированная,нет,78000,6906120,42.8342,74.5663,Бишкек,4,6,0,0,0,0,0,0,0,0,0,0,0,0,0,0,кирпичный,2022,1114.2857142857142
агент,2,"Бишкек, Бишкек-Парк",элитка,80.0,1,евроремонт,0,0,обмен не предлагать,нет,0,0,пустая,ламинат,2.9796183723797784,0,нет,бронированная,нет,130000,11510200,42.8754,74.5901,Бишкек,5,16,0,0,0,0,0,0,0,0,0,0,0,0,0,0,кирпичный,2022,1625.0
агент,2,"Бишкек, Золотой квадрат",хрущевка,40.0,1,хорошее,0,0,обмен не предлагать,нет,0,0,пустая,ламинат,2.9796183723797784,0,нет,бронированная,нет,63000,5578020,42.8756,74.5999,Бишкек,2,2,0,0,0,0,0,0,0,0,0,0,0,0,0,0,кирпичный,2022,1575.0
агент,4,"Бишкек, Молодая Гвардия",элитка,112.0,1,под самоотделку (псо),0,0,обмен не предлагать,нет,0,0,пустая,ламинат,2.9796183723797784,0,нет,бронированная,нет,131000,11598740,42.8686,74.5768,Бишкек,6,12,0,0,0,0,0,0,0,0,0,0,0,0,0,0,кирпичный,2022,1169.642857142857
собственник,3,"Бишкек, КНУ, К. Акиева/Жумабека",элитка,120.0,1,евроремонт,0,0,обмен не предлагать,нет,0,0,пустая,ламинат,3.0,0,нет,бронированная,нет,158000,13989320,42.8833,74.5786,Бишкек,7,10,0,0,0,0,0,0,0,0,0,0,0,0,0,0,монолитный,2020,1316.6666666666667
агент,1,"Бишкек, Магистраль",элитка,53.0,0,под самоотделку (псо),0,0,обмен не предлагать,нет,0,0,пустая,ламинат,2.9796183723797784,0,нет,бронированная,нет,54500,4825430,42.8202,74.6029,Бишкек,3,12,0,0,0,0,0,0,0,0,0,0,0,0,0,0,кирпичный,2022,1028.301886792453
агент,2,"Бишкек, 8 м-н",104 серия,43.0,1,хорошее,0,0,обмен не предлагать,нет,0,0,пустая,ламинат,2.9796183723797784,0,нет,бронированная,нет,56500,5002510,42.8323,74.611,Бишкек,1,4,0,0,0,0,0,0,0,0,0,0,0,0,0,0,панельный,2022,1313.953488372093
агент,3,"Бишкек, Вечерка",106 серия,72.0,1,хорошее,0,0,обмен не предлагать,нет,0,0,пустая,ламинат,2.9796183723797784,0,нет,бронированная,нет,78500,6950390,42.8642,74.6128,Бишкек,9,9,0,0,0,0,0,0,0,0,0,0,0,0,0,0,панельный,2022,1090.2777777777778
агент,3,"Бишкек, Магистраль",элитка,130.0,1,евроремонт,0,0,обмен не предлагать,нет,0,0,пустая,ламинат,2.9796183723797784,0,нет,бронированная,нет,170000,15051800,42.8269,74.5865,Бишкек,4,10,0,0,0,0,0,0,0,0,0,0,0,0,0,0,кирпичный,2022,1307.6923076923076
агент,1,"Бишкек, 5 м-н",105 серия,43.0,1,евроремонт,0,0,обмен не предлагать,нет,0,0,пустая,ламинат,2.9796183723797784,0,нет,бронированная,нет,58000,5135320,42.8319,74.6266,Бишкек,6,9,0,0,0,0,0,0,0,0,0,0,0,0,0,0,панельный,2022,1348.8372093023256
агент,2,"Бишкек, Учкун м-н",106 серия,62.0,1,хорошее,0,0,обмен не предлагать,нет,0,0,пустая,ламинат,2.9796183723797784,1,нет,бронированная,нет,62000,5489480,42.8706,74.6958,Бишкек,1,9,0,0,0,0,0,0,0,0,0,0,0,0,0,0,панельный,2022,1000.0
агент,1,"Бишкек, Московская - Уметалиева, Шевченко/Боконбаева",104 серия,35.0,1,хорошее,0,0,обмен не предлагать,нет,0,0,пустая,ламинат,2.9796183723797784,0,нет,бронированная,нет,51000,4515540,42.868,74.5823,Бишкек,5,5,0,0,0,0,0,0,0,0,0,0,0,0,0,0,панельный,2022,1457.142857142857
агент,1,"Бишкек, Восток-5 м-н",105 серия,38.0,1,хорошее,0,0,обмен не предлагать,нет,0,0,пустая,ламинат,2.9796183723797784,0,нет,бронированная,нет,51000,4515540,42.8742,74.6358,Бишкек,3,9,0,0,0,0,0,0,0,0,0,0,0,0,0,0,панельный,2022,1342.1052631578948
агент,2,"Бишкек, 6 м-н",104 серия,45.0,1,хорошее,0,0,обмен не предлагать,нет,0,0,пустая,ламинат,2.9796183723797784,0,нет,бронированная,нет,66000,5843640,42.8243,74.6264,Бишкек,2,4,0,0,0,0,0,0,0,0,0,0,0,0,0,0,панельный,2022,1466.6666666666667
агент,2,"Бишкек, 8 м-н",104 серия,43.0,1,хорошее,0,0,обмен не предлагать,нет,0,0,пустая,ламинат,2.9796183723797784,0,нет,бронированная,нет,64000,5666560,42.8341,74.613,Бишкек,3,4,0,0,0,0,0,0,0,0,0,0,0,0,0,0,панельный,2022,1488.3720930232557
агент,1,"Бишкек, Джальская больница, Ахунбаева - Тыналиева",элитка,56.0,0,евроремонт,0,0,обмен не предлагать,нет,0,0,пустая,ламинат,2.9796183723797784,0,нет,бронированная,нет,67000,5932180,42.8454,74.5698,Бишкек,3,10,0,0,0,0,0,0,0,0,0,0,0,0,0,0,монолитный,2023,1196.4285714285713
агент,3,"Бишкек, Городок энергетиков",104 серия,68.0,1,хорошее,0,0,обмен не предлагать,нет,0,0,пустая,ламинат,2.9796183723797784,0,нет,бронированная,нет,76000,6729040,42.8774,74.6924,Бишкек,3,4,0,0,0,0,0,0,0,0,0,0,0,0,0,0,кирпичный,2022,1117.6470588235295
собственник,3,"Бишкек, 12 м-н",106 серия,80.0,1,среднее,0,0,обмен не предлагать,проводной,1,1,полностью меблирована,линолеум,3.0,1,раздельный,металлическая,паркинг,92500,8189950,42.8146,74.6346,Бишкек,6,9,1,1,0,0,1,0,0,0,0,0,0,0,0,0,панельный,1990,1156.25
агент,3,"Бишкек, Военторг, Исанова/Токтогула",элитка,98.0,1,евроремонт,0,0,обмен не предлагать,нет,0,0,пустая,ламинат,3.0,0,2 с/у и более,бронированная,нет,147000,13015380,42.8733,74.5916,Бишкек,4,13,1,1,0,1,0,0,0,0,0,0,0,0,0,0,монолитный,2022,1500.0
агент,3,"Бишкек, Магистраль, Байтик Баатыра (недалеко от Южных ворот)",элитка,103.0,1,под самоотделку (псо),0,0,обмен не предлагать,нет,0,1,пустая,ламинат,3.0,1,раздельный,бронированная,паркинг,157000,13900780,42.8171,74.6059,Бишкек,12,14,1,1,1,0,0,1,1,1,1,0,0,0,0,0,монолитный,2022,1524.2718446601941
агент,1,"Бишкек, 12 м-н",элитка,44.0,1,евроремонт,0,0,обмен не предлагать,нет,1,0,полностью меблирована,ламинат,2.9796183723797784,0,нет,бронированная,паркинг,80000,7083200,42.814,74.6369,Бишкек,6,13,0,1,1,0,0,0,0,0,0,0,1,0,1,0,монолитный,2023,1818.1818181818182
агент,2,"Бишкек, Магистраль, Масалиева 43/Бакаева",элитка,57.0,1,евроремонт,0,0,обмен не предлагать,нет,0,0,полностью меблирована,ламинат,3.0,0,нет,бронированная,нет,77000,6817580,42.83,74.5774,Бишкек,9,12,1,1,0,0,0,0,0,0,0,0,0,0,1,0,монолитный,2017,1350.877192982456
агент,3,"Бишкек, Махатма Ганди - БЧК/Урицкая",105 серия,80.0,1,евроремонт,0,0,обмен не предлагать,нет,0,1,полностью меблирована,ламинат,2.9796183723797784,0,раздельный,бронированная,нет,78000,6906120,42.8915,74.5753,Бишкек,2,3,0,0,0,0,0,0,0,0,0,0,1,0,0,0,панельный,2022,975.0
агент,1,"Бишкек Октябрьский район, Ахунбаева (Бот. Сад)",элитка,43.0,1,евроремонт,0,0,обмен не предлагать,оптика,1,0,полностью меблирована,ламинат,3.0,1,совмещенный,бронированная,нет,73000,6463420,42.8412,74.6322,Бишкек,2,12,0,0,0,0,0,0,0,0,1,0,1,0,0,0,монолитный,2021,1697.6744186046512
агент,2,"Бишкек, Магистраль, Байтик Баатыра (недалеко от Южных ворот)",элитка,80.0,1,евроремонт,0,0,обмен не предлагать,нет,0,0,полностью меблирована,ламинат,3.0,0,нет,бронированная,паркинг,162000,14343480,42.8171,74.6059,Бишкек,5,14,0,1,1,0,0,0,0,0,1,0,0,0,1,0,монолитный,2022,2025.0
собственник,1,"Бишкек, 8 м-н, донецкая/жукея пудовкина",104 серия,32.2,1,среднее,0,0,обмен не предлагать,проводной,1,1,частично меблирована,дерево,2.8,1,совмещенный,металлическая,паркинг,49500,4382730,42.8372,74.6127,Бишкек,1,4,0,0,0,0,0,0,0,0,1,0,1,0,0,0,панельный,1970,1537.2670807453414
агент,3,"Бишкек, Магистраль",элитка,115.0,1,евроремонт,0,0,обмен не предлагать,нет,0,0,пустая,ламинат,2.9796183723797784,0,нет,бронированная,паркинг,188000,16645520,42.829,74.5813,Бишкек,10,14,0,1,1,0,0,0,0,0,0,0,0,0,1,0,кирпичный,2022,1634.7826086956522
агент,3,"Бишкек, Мед. академия",хрущевка,60.0,1,хорошее,0,0,обмен не предлагать,нет,1,0,пустая,ламинат,2.9796183723797784,0,нет,бронированная,нет,77500,6861850,42.8429,74.6029,Бишкек,1,4,0,0,0,0,0,0,0,0,0,0,1,0,0,0,кирпичный,1965,1291.6666666666667
агент,1,"Бишкек, Чокана Валиханова - Исакеева, Исакеева/Виноградная",элитка,38.0,1,евроремонт,0,1,обмен не предлагать,нет,1,0,пустая,ламинат,2.8,0,нет,бронированная,паркинг,53000,4692620,42.8612,74.6673,Бишкек,10,11,0,0,0,0,0,0,0,0,0,0,0,0,0,0,кирпичный,2023,1394.7368421052631
агент,2,"Бишкек, Военторг, Токтогула/Тоголок Молдо",элитка,70.0,1,евроремонт,0,0,обмен не предлагать,нет,0,0,полностью меблирована,ламинат,3.0,0,раздельный,бронированная,нет,120000,10624800,42.8717,74.5932,Бишкек,3,13,1,1,1,0,0,1,1,0,1,0,1,0,0,0,монолитный,2021,1714.2857142857142
агент,2,"Бишкек, Военторг, Токтогула/Тоголок Молдо",элитка,65.0,1,евроремонт,0,0,обмен не предлагать,нет,0,0,полностью меблирована,ламинат,3.0,0,раздельный,бронированная,нет,130000,11510200,42.8717,74.5932,Бишкек,10,13,1,1,1,0,0,1,0,0,1,0,1,0,0,0,монолитный,2021,2000.0
агент,2,"Бишкек, Карпинка, Суюмбаева/Токтогула",элитка,80.0,1,евроремонт,0,0,обмен не предлагать,проводной,0,1,пустая,ламинат,2.9796183723797784,1,раздельный,бронированная,нет,115000,10182100,42.8712,74.624,Бишкек,5,9,1,0,1,0,0,1,1,0,0,0,0,0,1,0,монолитный,2023,1437.5
собственник,4,"Бишкек, Московская - Белинка, Исанова боконбаева 20/Боконбаева",индивид. планировка,85.0,1,евроремонт,0,0,обмен не предлагать,проводной,1,1,полностью меблирована,паркет,3.0,1,совмещенный,бронированная,рядом охраняемая стоянка,148750,13170325,42.8686,74.5907,Бишкек,1,5,0,0,0,1,0,0,0,0,0,0,1,0,1,0,кирпичный,2022,1750.0
агент,3,"Бишкек, Магистраль, Ч. Айтматова/А. Масалиева",элитка,71.0,1,евроремонт,0,0,обмен не предлагать,нет,0,1,полностью меблирована,ламинат,3.0,0,2 с/у и более,бронированная,нет,108000,9562320,42.8258,74.5861,Бишкек,4,12,0,1,0,0,1,1,0,0,1,0,1,0,0,0,монолитный,2020,1521.1267605633802
агент,2,"Бишкек, Московская - Белинка, Исанова",индивид. планировка,44.0,1,хорошее,0,1,обмен не предлагать,проводной,0,1,полностью меблирована,ламинат,2.9796183723797784,1,совмещенный,металлическая,нет,68000,6020720,42.8684,74.5907,Бишкек,4,5,1,0,0,0,0,0,0,0,0,0,0,0,0,0,кирпичный,2022,1545.4545454545455
собственник,4,"Бишкек, Асанбай м-н 40/1/Куттубаева",элитка,150.0,1,евроремонт,0,0,обмен не предлагать,adsl,1,0,полностью меблирована,паркет,3.0,0,2 с/у и более,бронированная,паркинг,250000,22135000,42.8181,74.6252,Бишкек,3,9,1,0,1,0,0,0,1,0,1,0,1,0,0,0,кирпичный,2016,1666.6666666666667
агент,3,"Бишкек, Сквер Тоголок Молдо, Исанова/Токтогула/Токтогула",элитка,98.0,1,евроремонт,0,0,обмен не предлагать,проводной,0,0,полностью меблирована,ламинат,3.0,0,раздельный,металлическая,паркинг,147000,13015380,42.8706,74.5914,Бишкек,4,12,1,1,1,0,1,1,0,0,0,0,0,0,1,0,монолитный,2022,1500.0
агент,2,"Бишкек, Джал-29 м-н",элитка,58.0,1,евроремонт,0,1,обмен не предлагать,нет,0,0,частично меблирована,ламинат,2.9796183723797784,0,нет,бронированная,нет,78500,6950390,42.8305,74.5668,Бишкек,9,10,1,0,0,0,0,0,1,0,1,0,1,0,0,0,кирпичный,2020,1353.448275862069
агент,3,"Бишкек, 12 м-н",106 серия,68.0,1,евроремонт,0,1,обмен не предлагать,нет,1,1,частично меблирована,ламинат,2.9796183723797784,0,нет,бронированная,нет,89000,7880060,42.8159,74.638,Бишкек,7,9,0,0,0,0,0,0,0,0,1,0,1,0,0,0,панельный,2022,1308.8235294117646
агент,2,"Бишкек, Верхний Джал м-н, мкрн Верхний Джал",элитка,63.0,1,евроремонт,0,1,обмен не предлагать,нет,0,0,пустая,ламинат,3.0,0,нет,бронированная,нет,80000,7083200,42.835,74.5668,Бишкек,5,10,1,1,0,0,0,0,0,0,0,0,0,0,0,0,монолитный,2014,1269.8412698412699
агент,1,"Бишкек, 10 м-н",105 серия,34.0,0,евроремонт,0,1,обмен не предлагать,нет,1,0,частично меблирована,ламинат,2.9796183723797784,0,совмещенный,бронированная,паркинг,56500,5002510,42.8304,74.6026,Бишкек,3,5,0,0,0,0,0,0,0,0,0,0,0,0,0,0,панельный,1987,1661.764705882353
агент,3,"Бишкек, Верхний Джал м-н",элитка,100.0,1,евроремонт,0,0,обмен не предлагать,нет,0,0,полностью меблирована,ламинат,2.9796183723797784,0,нет,бронированная,нет,127000,11244580,42.8347,74.5658,Бишкек,5,14,0,1,1,0,0,0,0,0,0,0,0,0,0,0,кирпичный,2022,1270.0
агент,1,"Бишкек, Верхний Джал м-н",105 серия,42.0,1,хорошее,0,1,обмен не предлагать,нет,1,1,пустая,ламинат,2.9796183723797784,0,нет,бронированная,нет,57000,5046780,42.8361,74.5672,Бишкек,1,9,0,0,0,0,0,0,0,0,0,0,0,0,0,0,панельный,2022,1357.142857142857
агент,1,"Бишкек, 7 м-н",104 серия,35.0,1,хорошее,0,1,обмен не предлагать,нет,1,1,частично меблирована,ламинат,2.9796183723797784,0,совмещенный,металлическая,паркинг,56700,5020218,42.8341,74.6177,Бишкек,2,4,1,1,0,0,0,0,0,0,0,0,0,0,0,0,панельный,1986,1620.0
агент,1,"Бишкек, 5 м-н",105 серия,40.0,1,хорошее,0,1,обмен не предлагать,нет,0,0,пустая,ламинат,2.9796183723797784,0,совмещенный,бронированная,нет,53500,4736890,42.8306,74.6269,Бишкек,2,9,0,0,0,0,0,0,0,0,0,0,0,0,0,0,панельный,2022,1337.5
агент,2,"Бишкек, 8 м-н",104 серия,42.0,1,среднее,0,1,обмен не предлагать,нет,0,1,частично меблирована,ламинат,2.9796183723797784,0,нет,металлическая,нет,64000,5666560,42.834,74.6091,Бишкек,2,5,0,1,0,0,0,0,0,0,0,0,1,0,0,0,панельный,2022,1523.8095238095239
агент,1,"Бишкек, Московская - Белинка, Токтогула/исанова",индивид. планировка,54.0,1,евроремонт,0,1,обмен не предлагать,нет,0,1,частично меблирована,ламинат,2.9796183723797784,0,нет,бронированная,нет,70000,6197800,42.8725,74.589,Бишкек,5,6,0,1,0,0,0,0,0,0,1,0,1,0,0,0,панельный,2022,1296.2962962962963
агент,2,"Бишкек, Комфорт, Ибрагимова/Боконбаева",104 серия,50.0,1,среднее,0,1,обмен не предлагать,нет,0,1,пустая,ламинат,2.9796183723797784,0,нет,металлическая,нет,65000,5755100,42.8699,74.6175,Бишкек,2,4,0,1,0,0,0,0,0,0,0,0,0,0,0,0,панельный,2022,1300.0
агент,1,"Бишкек, Магистраль,  ул. Куттубаева, 15",элитка,38.0,1,евроремонт,0,0,обмен не предлагать,нет,0,1,частично меблирована,ламинат,3.0,0,нет,бронированная,нет,61500,5445210,42.8138,74.6191,Бишкек,5,12,1,1,0,0,0,0,0,0,0,0,0,0,0,0,монолитный,2023,1618.421052631579
агент,3,"Бишкек, 12 м-н",106 серия,82.0,1,евроремонт,0,1,обмен не предлагать,нет,1,1,пустая,ламинат,2.9796183723797784,0,нет,бронированная,нет,101000,8942540,42.8154,74.6372,Бишкек,7,9,0,1,0,0,0,0,0,0,1,0,1,0,0,0,панельный,2022,1231.7073170731708
агент,3,"Бишкек, Джал-29 м-н, Тыналиева",элитка,84.0,1,евроремонт,0,1,обмен не предлагать,нет,0,0,пустая,ламинат,3.2,0,нет,бронированная,нет,112000,9916480,42.8311,74.5681,Бишкек,12,12,1,1,0,0,0,0,0,0,1,0,1,0,0,0,монолитный,2018,1333.3333333333333
агент,2,"Бишкек, Горького - Панфилова",105 серия,50.0,1,хорошее,0,1,обмен не предлагать,нет,0,1,частично меблирована,ламинат,2.9796183723797784,0,нет,металлическая,нет,71000,6286340,42.8587,74.6057,Бишкек,3,9,1,0,0,0,0,0,0,0,0,0,1,0,0,0,панельный,2022,1420.0
агент,1,"Бишкек, Военторг, Манасчы Сагынбая 168",элитка,41.0,1,под самоотделку (псо),0,0,обмен не предлагать,нет,0,1,пустая,ламинат,3.2,0,нет,металлическая,нет,53500,4736890,42.8716,74.5945,Бишкек,13,16,0,0,0,0,0,0,0,0,0,0,0,0,0,0,монолитный,2025,1304.878048780488
агент,2,"Бишкек, 12 м-н",106 серия,53.0,1,хорошее,0,1,обмен не предлагать,нет,1,1,пустая,ламинат,2.9796183723797784,0,нет,бронированная,нет,77000,6817580,42.8134,74.6369,Бишкек,7,9,1,1,0,0,0,0,1,0,0,0,1,0,0,0,панельный,2022,1452.8301886792453
агент,2,"Бишкек, Парк Панфилова/Спартак",элитка,65.0,1,евроремонт,0,0,обмен не предлагать,проводной,1,0,частично меблирована,ламинат,2.9796183723797784,0,раздельный,бронированная,паркинг,106000,9385240,42.8819,74.5986,Бишкек,8,12,0,1,1,0,0,0,0,1,1,0,1,0,0,0,кирпичный,2022,1630.7692307692307
агент,3,"Бишкек, Военторг, Токтогула Логвиненко",индивид. планировка,70.0,1,евроремонт,0,0,обмен не предлагать,проводной,1,1,полностью меблирована,ламинат,2.9796183723797784,0,раздельный,бронированная,паркинг,137000,12129980,42.8723,74.599,Бишкек,3,5,0,1,1,0,0,0,0,0,1,0,1,0,0,0,кирпичный,2022,1957.142857142857
агент,2,"Бишкек, Молодая Гвардия",индивид. планировка,45.0,1,хорошее,0,0,обмен не предлагать,проводной,1,1,пустая,ламинат,2.9796183723797784,0,раздельный,бронированная,нет,72300,6401442,42.8736,74.5773,Бишкек,2,5,0,0,0,0,0,0,0,0,1,0,1,0,0,0,кирпичный,2022,1606.6666666666667
агент,2,"Бишкек, Восток-5 м-н",элитка,70.0,1,евроремонт,0,0,обмен не предлагать,проводной,1,0,пустая,ламинат,2.9796183723797784,0,раздельный,бронированная,нет,93000,8234220,42.8725,74.6315,Бишкек,4,12,0,1,0,0,0,0,0,0,1,0,0,1,0,0,кирпичный,2021,1328.5714285714287
агент,2,"Бишкек, Филармония",элитка,58.0,1,евроремонт,0,0,обмен не предлагать,проводной,0,0,частично меблирована,ламинат,2.9796183723797784,0,нет,бронированная,нет,90000,7968600,42.8796,74.5856,Бишкек,4,12,0,1,0,0,0,0,0,0,0,0,1,0,0,0,кирпичный,2020,1551.7241379310344
агент,2,"Бишкек, Восток-5 м-н",индивид. планировка,60.0,1,хорошее,0,0,обмен не предлагать,проводной,1,1,пустая,ламинат,2.9796183723797784,0,раздельный,бронированная,нет,83000,7348820,42.8748,74.6267,Бишкек,3,5,0,1,0,0,0,0,0,0,0,1,0,0,0,0,кирпичный,2022,1383.3333333333333
агент,2,"Бишкек, Академия Наук",элитка,80.0,1,евроремонт,0,0,рассмотрю варианты,проводной,1,1,частично меблирована,ламинат,2.9796183723797784,0,раздельный,бронированная,нет,110000,9739400,42.8794,74.5817,Бишкек,12,12,0,1,1,0,0,0,0,1,1,0,1,0,0,0,кирпичный,2022,1375.0
агент,2,"Бишкек, Московская - Уметалиева",индивид. планировка,74.0,1,хорошее,0,0,обмен не предлагать,проводной,1,1,частично меблирована,ламинат,2.9796183723797784,0,раздельный,бронированная,нет,87700,7764958,42.8731,74.581,Бишкек,2,5,0,0,0,0,0,0,0,0,0,0,0,0,0,0,кирпичный,2022,1185.1351351351352
собственник,2,"Бишкек, Золотой квадрат, Панфилова/Московская",индивид. планировка,74.0,1,под самоотделку (псо),0,0,обмен не предлагать,нет,1,1,пустая,ламинат,3.0,0,раздельный,металлическая,паркинг,94900,8402446,42.8694,74.6002,Бишкек,8,10,0,1,0,0,0,0,0,0,1,0,1,0,0,0,кирпичный,2024,1282.4324324324325
агент,3,"Бишкек, Магистраль, просп. Ч. Айтматова 299/3",элитка,127.0,1,под самоотделку (псо),0,0,обмен не предлагать,нет,1,1,пустая,ламинат,3.4,0,2 с/у и более,металлическая,рядом охраняемая стоянка,255000,22577700,42.825,74.5839,Бишкек,2,8,1,1,1,0,0,0,1,1,0,0,1,0,0,0,монолитный,2022,2007.8740157480315
собственник,3,"Бишкек, Кара Дарыя, Ахунбаева/Крапоткина.",элитка,80.0,1,евроремонт,0,0,обмен не предлагать,проводной,1,1,частично меблирована,ламинат,3.0,0,раздельный,металлическая,нет,104000,9208160,42.8416,74.6265,Бишкек,6,12,1,1,1,0,0,0,0,0,1,0,1,0,0,0,кирпичный,2022,1300.0
агент,2,"Бишкек, Восток-5 м-н",105 серия,52.0,1,хорошее,0,0,обмен не предлагать,проводной,1,1,частично меблирована,ламинат,2.9796183723797784,0,раздельный,бронированная,нет,72700,6436858,42.8734,74.6317,Бишкек,3,5,0,0,0,0,0,0,0,0,1,0,1,0,0,0,кирпичный,2022,1398.076923076923
собственник,3,"Бишкек, Кок-Жар ж/м, Кок-Жар (Куйручук/ Тон)",элитка,75.0,1,не достроено,1,0,обмен не предлагать,нет,1,1,пустая,ламинат,2.9796183723797784,0,нет,бронированная,нет,71250,6308475,42.8518,74.6407,Бишкек,9,10,0,0,0,0,0,0,0,0,0,0,0,0,0,0,монолитный,2025,950.0
агент,3,"Бишкек, Филармония, Абдумомунова 290",элитка,96.0,1,под самоотделку (псо),0,0,обмен не предлагать,нет,1,0,пустая,ламинат,3.1,0,2 с/у и более,металлическая,нет,163200,14449728,42.8802,74.5898,Бишкек,10,14,0,1,1,0,0,0,0,0,0,0,0,0,1,0,кирпичный,2024,1700.0
агент,3,"Бишкек, 4 м-н",104 серия,58.0,1,среднее,0,0,обмен не предлагать,нет,1,0,пустая,ламинат,2.9796183723797784,0,совмещенный,бронированная,нет,70000,6197800,42.8389,74.6231,Бишкек,1,4,0,0,0,0,0,0,0,0,0,0,0,0,0,0,панельный,2022,1206.896551724138
агент,3,"Бишкек, Восток-5 м-н",105 серия,65.0,1,хорошее,0,0,обмен не предлагать,нет,1,1,полностью меблирована,ламинат,2.9796183723797784,0,раздельный,металлическая,паркинг,86000,7614440,42.8726,74.6344,Бишкек,1,5,1,0,0,1,0,0,0,0,1,0,1,0,0,0,панельный,1983,1323.076923076923
агент,3,"Бишкек, 7 м-н, 7 мкр., ул. Юнусалиева",элитка,116.0,1,под самоотделку (псо),0,0,обмен не предлагать,нет,1,1,пустая,ламинат,3.3,0,2 с/у и более,бронированная,нет,186000,16468440,42.829,74.6218,Бишкек,11,15,1,1,1,0,1,0,1,1,0,0,0,0,1,0,монолитный,2022,1603.448275862069
агент,2,"Бишкек, КНУ, Абдымомунова 255",элитка,81.0,1,под самоотделку (псо),0,0,обмен не предлагать,нет,1,1,пустая,ламинат,3.0,0,2 с/у и более,металлическая,нет,87480,7745479,42.8805,74.5908,Бишкек,9,12,0,0,0,0,0,0,0,0,0,0,0,0,0,0,монолитный,2023,1080.0
агент,3,"Бишкек, Джал 15 м-н, Ахунбаева/Тыналиева",элитка,88.0,1,евроремонт,0,0,обмен не предлагать,проводной,1,1,пустая,ламинат,3.0,0,раздельный,бронированная,рядом охраняемая стоянка,108000,9562320,42.8451,74.5654,Бишкек,2,14,0,1,0,0,0,0,0,1,0,0,0,0,0,0,монолитный,2023,1227.2727272727273
агент,3,"Бишкек, Джал 15 м-н, Ахунбаева/Тыналиева",элитка,88.0,1,евроремонт,0,0,обмен не предлагать,проводной,1,1,пустая,ламинат,3.0,0,раздельный,бронированная,рядом охраняемая стоянка,108000,9562320,42.8451,74.5654,Бишкек,2,14,0,1,0,0,0,0,0,1,0,0,0,0,0,0,монолитный,2023,1227.2727272727273
агент,3,"Бишкек, Джал 15 м-н, Ахунбаева/Тыналиева",элитка,100.0,1,евроремонт,0,0,обмен не предлагать,проводной,1,1,пустая,ламинат,3.0,0,нет,бронированная,рядом охраняемая стоянка,123000,10890420,42.8451,74.5654,Бишкек,13,14,0,0,0,0,0,0,0,0,0,0,0,0,0,0,монолитный,2023,1230.0
собственник,1,"Бишкек, Восток-5 м-н 23/алматинская",105 серия,39.0,1,среднее,0,1,обмен не предлагать,нет,1,0,пустая,ламинат,2.9796183723797784,0,нет,бронированная,нет,49900,4418146,42.8689,74.6352,Бишкек,7,9,0,0,0,0,0,0,0,0,1,0,0,0,0,0,панельный,2022,1279.4871794871794
агент,2,"Бишкек, Бишкек-Парк, Токтогула/Исанова",элитка,74.0,1,евроремонт,0,0,обмен не предлагать,нет,0,0,пустая,ламинат,3.0,0,нет,бронированная,нет,123000,10890420,42.873,74.5901,Бишкек,11,16,0,1,1,0,0,0,0,0,1,0,1,0,1,0,кирпичный,2020,1662.162162162162
собственник,1,"Бишкек, Тунгуч м-н, мкр тунгуч 6",106 серия,36.0,1,среднее,0,1,обмен не предлагать,проводной,1,1,полностью меблирована,ламинат,2.9796183723797784,1,совмещенный,бронированная,нет,47000,4161380,42.8541,74.6843,Бишкек,7,9,0,0,0,0,0,0,0,0,1,0,1,0,0,0,панельный,1989,1305.5555555555557
собственник,1,"Бишкек, 6 м-н, 6 мкр-н 3/3/каралаева",элитка,45.0,1,не достроено,0,0,обмен не предлагать,нет,1,1,пустая,ламинат,3.2,0,нет,бронированная,нет,42500,3762950,42.824,74.6322,Бишкек,9,14,0,0,0,0,0,0,0,0,0,0,0,0,0,0,кирпичный,2022,944.4444444444445
агент,2,"Бишкек, Магистраль, ул. Байтик Баатыра (недалеко от Южных ворот)",элитка,80.0,1,евроремонт,0,0,обмен не предлагать,нет,0,0,полностью меблирована,ламинат,3.0,0,совмещенный,бронированная,паркинг,140000,12395600,42.8158,74.621,Бишкек,5,14,1,1,1,0,0,0,0,0,0,0,1,0,0,0,монолитный,2023,1750.0
агент,2,"Бишкек, VEFA, Горького/Фатьянова",элитка,87.0,1,евроремонт,0,1,обмен не предлагать,проводной,0,1,частично меблирована,ламинат,3.0,1,раздельный,металлическая,рядом охраняемая стоянка,106000,9385240,42.8562,74.6059,Бишкек,7,12,0,0,0,0,0,0,0,0,1,0,1,0,0,0,монолитный,2017,1218.3908045977012
агент,2,"Бишкек, Гагарина, Джал, ул. Курчатова 81",элитка,71.0,0,евроремонт,0,0,обмен не предлагать,нет,0,0,пустая,ламинат,3.3,0,раздельный,бронированная,нет,83000,7348820,42.8469,74.5613,Бишкек,12,13,0,0,0,0,0,0,0,0,0,0,0,0,0,0,монолитный,2023,1169.0140845070423
агент,3,"Бишкек, 11 м-н",106 серия,64.0,1,евроремонт,0,1,обмен не предлагать,оптика,1,1,частично меблирована,ламинат,2.0,0,раздельный,бронированная,рядом охраняемая стоянка,95000,8411300,42.8202,74.6311,Бишкек,1,9,1,1,0,1,0,0,0,0,1,0,1,0,0,0,панельный,2022,1484.375
агент,3,"Бишкек, Асанбай м-н",элитка,122.0,1,евроремонт,0,1,обмен не предлагать,проводной,1,1,частично меблирована,ламинат,3.0,1,раздельный,бронированная,рядом охраняемая стоянка,230000,20364200,42.8186,74.6248,Бишкек,11,13,0,0,0,0,0,0,0,0,0,0,1,0,0,0,кирпичный,2016,1885.2459016393443
агент,3,"Бишкек, Магистраль, Куттубаева 1/Южн. Магистраль",элитка,97.0,1,евроремонт,0,0,обмен не предлагать,проводной,1,1,полностью меблирована,ламинат,3.0,0,раздельный,металлическая,нет,123000,10890420,42.8113,74.6221,Бишкек,9,10,0,0,0,0,0,0,0,0,0,0,0,0,0,0,монолитный,2023,1268.041237113402
агент,2,"Бишкек, Арча-Бешик ж/м",индивид. планировка,70.0,1,евроремонт,0,0,обмен не предлагать,проводной,1,0,полностью меблирована,ламинат,3.0,1,раздельный,металлическая,рядом охраняемая стоянка,78000,6906120,42.8317,74.5561,Бишкек,4,6,1,1,1,0,0,0,0,0,0,0,1,0,1,0,кирпичный,2023,1114.2857142857142
агент,2,"Бишкек, Московская - Белинка, Боконбаева/Исанова",элитка,82.0,1,хорошее,0,1,обмен не предлагать,проводной,1,1,полностью меблирована,ламинат,3.0,1,раздельный,металлическая,рядом охраняемая стоянка,112000,9916480,42.8675,74.5904,Бишкек,7,9,1,1,0,0,0,0,0,0,1,0,1,0,0,0,панельный,2016,1365.8536585365853
агент,2,"Бишкек, Московская - Белинка, Исанова/Боконбаева",индивид. планировка,52.0,1,хорошее,0,1,обмен не предлагать,проводной,0,0,полностью меблирована,ламинат,2.9796183723797784,0,совмещенный,бронированная,рядом охраняемая стоянка,80000,7083200,42.8678,74.5907,Бишкек,4,5,0,0,0,0,0,0,0,0,1,0,1,0,0,0,кирпичный,2022,1538.4615384615386
агент,3,"Бишкек, Юг-2 м-н",индивид. планировка,85.0,1,хорошее,0,1,обмен не предлагать,проводной,1,1,полностью меблирована,ламинат,3.0,0,нет,деревянная,рядом охраняемая стоянка,85000,7525900,42.8581,74.6094,Бишкек,8,9,1,1,0,0,0,0,0,0,1,0,1,0,0,0,кирпичный,2022,1000.0
агент,1,"Бишкек, 5 м-н",105 серия,41.0,1,евроремонт,0,0,обмен не предлагать,нет,1,1,пустая,ламинат,2.9796183723797784,1,нет,деревянная,нет,58000,5135320,42.8307,74.6283,Бишкек,2,5,0,0,0,0,0,0,0,0,0,0,0,0,0,0,панельный,2022,1414.6341463414635
агент,2,"Бишкек, Молодая Гвардия",104 серия,44.0,1,хорошее,0,0,обмен не предлагать,нет,0,0,пустая,ламинат,2.9796183723797784,0,нет,бронированная,нет,65500,5799370,42.8731,74.5773,Бишкек,4,5,0,0,0,0,0,0,0,0,0,0,0,0,0,0,панельный,1980,1488.6363636363637
агент,2,"Бишкек, Политех/Ахунбаева/Белинка",хрущевка,48.0,1,евроремонт,0,0,обмен не предлагать,проводной,1,0,частично меблирована,ламинат,2.9796183723797784,0,совмещенный,бронированная,рядом охраняемая стоянка,60000,5312400,42.8435,74.5857,Бишкек,1,3,0,0,0,0,0,0,0,0,0,0,0,0,0,0,кирпичный,1967,1250.0
агент,1,"Бишкек, Асанбай м-н",элитка,38.0,1,евроремонт,0,0,обмен не предлагать,нет,0,0,пустая,ламинат,2.9796183723797784,0,нет,бронированная,нет,56000,4958240,42.8189,74.6248,Бишкек,7,10,0,0,0,0,0,0,0,0,0,0,0,0,0,0,кирпичный,2022,1473.6842105263158
агент,2,"Бишкек, Магистраль, Токомбаева 29/5",элитка,80.0,1,евроремонт,0,0,обмен не предлагать,нет,0,0,пустая,ламинат,3.0,0,нет,бронированная,нет,85000,7525900,42.8239,74.6134,Бишкек,2,12,0,0,0,0,0,0,0,0,0,0,0,0,0,0,монолитный,2017,1062.5
агент,1,"Бишкек, Кара-Жыгач ж/м",108 серия,43.0,1,евроремонт,0,0,обмен не предлагать,нет,0,0,пустая,ламинат,2.9796183723797784,0,нет,бронированная,нет,51500,4559810,42.8599,74.657,Бишкек,2,10,0,0,0,0,0,0,0,0,0,0,0,0,0,0,панельный,2022,1197.6744186046512
агент,1,"Бишкек, Горького - Алма-Атинская, 7 апреля 1/1/Горького",элитка,41.0,1,под самоотделку (псо),0,0,обмен не предлагать,нет,0,0,пустая,ламинат,3.0,0,нет,бронированная,нет,37000,3275980,42.8585,74.6315,Бишкек,3,10,0,1,1,0,0,0,0,0,1,0,0,0,1,0,кирпичный,2024,902.439024390244
агент,3,"Бишкек, 7 м-н",элитка,84.0,1,хорошее,0,0,обмен не предлагать,нет,0,0,пустая,ламинат,2.9796183723797784,0,нет,бронированная,нет,105000,9296700,42.8281,74.6212,Бишкек,8,10,0,0,0,0,0,0,0,0,0,0,0,0,0,0,монолитный,2022,1250.0
агент,2,"Бишкек, Средний Джал м-н, Тыналиева 1/3",элитка,73.0,1,евроремонт,0,0,обмен не предлагать,нет,0,0,пустая,ламинат,3.0,0,нет,бронированная,нет,75000,6640500,42.838,74.5683,Бишкек,13,13,0,0,0,0,0,0,0,0,0,0,0,0,0,0,монолитный,2017,1027.3972602739725
агент,1,"Бишкек, Асанбай м-н",элитка,40.0,1,евроремонт,0,0,обмен не предлагать,нет,0,0,пустая,ламинат,2.9796183723797784,0,нет,бронированная,нет,55800,4940532,42.8186,74.6248,Бишкек,7,12,0,0,0,0,0,0,0,0,0,0,0,0,0,0,кирпичный,2022,1395.0
агент,3,"Бишкек, БГУ",104 серия,58.0,1,хорошее,0,0,обмен не предлагать,нет,0,0,пустая,ламинат,2.9796183723797784,0,нет,бронированная,нет,87000,7702980,42.8497,74.5839,Бишкек,1,4,0,0,0,0,0,0,0,0,0,0,0,0,0,0,кирпичный,2022,1500.0
агент,2,"Бишкек, 12 м-н, 12 мкр., ул. Токомбаева/Саякбая Каралаева",элитка,47.0,1,евроремонт,0,0,обмен не предлагать,нет,0,0,пустая,ламинат,3.0,0,нет,бронированная,нет,75000,6640500,42.8128,74.6403,Бишкек,10,13,0,0,0,0,0,0,0,0,0,0,0,0,0,0,монолитный,2023,1595.7446808510638
агент,1,"Бишкек, Политех, Ажыбек-Баатыра 10в",элитка,38.0,1,евроремонт,0,0,обмен не предлагать,нет,0,0,пустая,ламинат,3.0,0,нет,бронированная,нет,65000,5755100,42.8403,74.5822,Бишкек,11,12,0,0,0,0,0,0,0,0,0,0,0,0,0,0,монолитный,2018,1710.5263157894738
агент,1,с. Кок-Джар,106 серия,43.0,1,хорошее,0,0,обмен не предлагать,нет,0,0,пустая,ламинат,2.9796183723797784,0,совмещенный,бронированная,нет,55000,4869700,42.8121,74.6505,Бишкек,1,9,0,0,0,0,0,0,0,0,0,0,0,0,1,0,панельный,2022,1279.0697674418604
агент,1,"Бишкек, Магистраль, Токомбаева/Куттубаева",элитка,40.18,1,евроремонт,0,0,обмен не предлагать,нет,0,0,пустая,ламинат,3.0,0,нет,бронированная,нет,63500,5622290,42.8177,74.6152,Бишкек,7,12,0,0,0,0,0,0,0,0,0,0,0,0,0,0,монолитный,2022,1580.3882528621205
агент,3,"Бишкек, Ак Кеме, пр. Ч.Айтматова 97/3 пер. Южная магистраль",элитка,96.0,1,евроремонт,0,0,обмен не предлагать,нет,0,0,пустая,ламинат,2.9796183723797784,0,нет,бронированная,нет,136000,12041440,42.8312,74.5835,Бишкек,6,9,0,0,0,0,0,0,0,0,0,0,0,0,0,0,монолитный,2023,1416.6666666666667
агент,1,"Бишкек, Политех, Ажыбек-Баатыра 10в",элитка,38.0,1,евроремонт,0,0,обмен не предлагать,нет,0,0,пустая,ламинат,3.0,0,нет,бронированная,нет,64000,5666560,42.8403,74.5822,Бишкек,3,12,0,0,0,0,0,0,0,0,0,0,0,0,0,0,монолитный,2018,1684.2105263157894
агент,4,"Бишкек, Академия Наук, Киевская/Турусбекова",элитка,230.0,1,евроремонт,0,0,обмен не предлагать,нет,0,1,полностью меблирована,дерево,2.9796183723797784,0,нет,бронированная,рядом охраняемая стоянка,220000,19478800,42.8758,74.5843,Бишкек,7,7,1,1,0,0,0,0,0,0,1,0,1,0,0,0,монолитный,2007,956.5217391304348
агент,2,с. Кок-Джар,106 серия,68.0,1,евроремонт,0,0,обмен не предлагать,нет,0,0,пустая,ламинат,2.9796183723797784,0,нет,бронированная,нет,78500,6950390,42.8151,74.6468,Бишкек,2,9,0,0,0,0,0,0,0,0,0,0,0,0,0,0,панельный,2022,1154.4117647058824
агент,4,"Бишкек, Московская - Уметалиева, Уметалиева/Киевская",элитка,120.0,1,евроремонт,0,0,обмен не предлагать,нет,0,0,полностью меблирована,ламинат,3.0,0,нет,бронированная,паркинг,230000,20364200,42.8749,74.5815,Бишкек,2,14,1,1,1,0,0,0,0,0,0,0,1,0,0,0,монолитный,2018,1916.6666666666667
агент,1,"Бишкек, Верхний Джал м-н",106 серия,36.0,1,среднее,0,0,обмен не предлагать,нет,0,0,пустая,ламинат,2.9796183723797784,0,нет,бронированная,нет,55000,4869700,42.8346,74.5643,Бишкек,6,9,0,0,0,0,0,0,0,0,1,0,1,0,0,0,панельный,2022,1527.7777777777778
агент,1,"с. Кок-Джар, Алма-Атинская/Южная магистраль",элитка,47.0,0,евроремонт,0,0,обмен не предлагать,нет,0,0,пустая,ламинат,2.8,0,нет,бронированная,нет,48500,4294190,42.8151,74.6478,Бишкек,8,9,0,0,0,0,0,0,0,0,0,0,0,0,0,0,панельный,2016,1031.9148936170213
агент,3,"Бишкек, 12 м-н 69",105 серия,69.0,1,среднее,0,0,обмен не предлагать,нет,1,1,частично меблирована,ламинат,2.9796183723797784,0,раздельный,бронированная,рядом охраняемая стоянка,87000,7702980,42.813,74.6392,Бишкек,7,9,1,1,0,1,1,0,0,0,0,0,0,0,0,0,панельный,2022,1260.8695652173913
агент,2,"Бишкек, Джал-23 м-н (Нижний Джал), Ахунбаева 67/1",элитка,58.4,1,евроремонт,0,0,обмен не предлагать,нет,0,0,пустая,ламинат,3.0,0,нет,бронированная,нет,79000,6994660,42.8434,74.5642,Бишкек,11,11,0,0,0,0,0,0,0,0,0,0,0,0,0,0,монолитный,2017,1352.7397260273972
агент,2,"Бишкек, Баха, Джал-15",элитка,77.0,1,евроремонт,0,0,обмен не предлагать,нет,0,0,пустая,ламинат,3.0,0,нет,бронированная,нет,89000,7880060,42.8461,74.5623,Бишкек,7,9,0,0,0,0,0,0,0,0,0,0,0,0,0,0,монолитный,2019,1155.844155844156
агент,2,"Бишкек, Горького - Алма-Атинская, Горького-7-апреля",элитка,52.0,1,евроремонт,0,0,обмен не предлагать,нет,0,0,пустая,ламинат,3.0,0,нет,бронированная,нет,56000,4958240,42.8566,74.6386,Бишкек,9,16,0,0,0,0,0,0,0,0,0,0,0,0,0,0,монолитный,2023,1076.923076923077
агент,3,"Бишкек, Золотой квадрат, Чуйкова/Панфилова",элитка,118.0,1,под самоотделку (псо),0,0,обмен не предлагать,нет,0,0,пустая,ламинат,3.0,0,нет,бронированная,нет,125000,11067500,42.8712,74.6041,Бишкек,3,12,0,0,0,0,0,0,0,0,0,0,0,0,0,0,монолитный,2021,1059.322033898305
агент,2,"Бишкек, Магистраль, Ч. Айтматова/Масалиева",108 серия,80.0,1,евроремонт,0,0,обмен не предлагать,нет,0,0,пустая,ламинат,2.8,0,нет,бронированная,нет,95000,8411300,42.8249,74.591,Бишкек,8,9,0,0,0,0,0,0,0,0,0,0,0,0,0,0,монолитный,2022,1187.5
агент,3,"Бишкек, Кок-Жар ж/м, 7 Апреля",элитка,69.5,1,евроремонт,0,0,обмен не предлагать,нет,0,0,пустая,ламинат,3.0,0,нет,бронированная,нет,93500,8278490,42.8453,74.6357,Бишкек,9,9,0,0,0,0,0,0,0,0,0,0,0,0,0,0,монолитный,2020,1345.3237410071943
агент,1,"Бишкек, Магистраль, Ч. Айтматова/Масалиева",108 серия,51.0,1,евроремонт,0,0,обмен не предлагать,нет,0,1,частично меблирована,ламинат,2.8,0,нет,бронированная,паркинг,63000,5578020,42.8249,74.591,Бишкек,4,9,0,0,0,0,0,0,0,0,0,0,0,0,0,0,монолитный,2022,1235.2941176470588
агент,1,"Бишкек, Матросова, Суванбердиева 110",элитка,43.0,1,евроремонт,0,0,обмен не предлагать,нет,0,0,пустая,ламинат,3.0,0,нет,бронированная,нет,58000,5135320,42.8485,74.6173,Бишкек,5,12,0,0,0,0,0,0,0,0,0,0,0,0,0,0,монолитный,2023,1348.8372093023256
агент,2,"Бишкек, Баха",элитка,54.0,1,евроремонт,0,0,обмен не предлагать,нет,0,0,пустая,ламинат,2.9796183723797784,0,нет,бронированная,нет,59000,5223860,42.8465,74.564,Бишкек,8,12,0,0,0,0,0,0,0,0,0,0,0,0,0,0,монолитный,2022,1092.5925925925926
агент,2,"Бишкек, Магистраль, Ч. Айтматова 7/Масалиева",108 серия,65.0,1,евроремонт,0,0,обмен не предлагать,нет,0,1,пустая,паркет,2.8,0,нет,бронированная,рядом охраняемая стоянка,74900,6631646,42.8249,74.591,Бишкек,4,9,1,0,0,0,0,0,0,0,0,0,0,0,0,0,монолитный,2022,1152.3076923076924
агент,3,"Бишкек, Военторг, Манасчы Сагынбая 168",элитка,141.0,0,под самоотделку (псо),0,0,обмен не предлагать,нет,0,0,пустая,ламинат,3.2,0,нет,бронированная,нет,148050,13108347,42.8716,74.5945,Бишкек,15,16,0,0,0,0,0,0,0,0,0,0,0,0,0,0,монолитный,2025,1050.0
агент,1,"Бишкек, Баха",элитка,44.0,1,евроремонт,0,0,обмен не предлагать,нет,0,0,пустая,ламинат,2.9796183723797784,0,нет,бронированная,нет,56000,4958240,42.8464,74.564,Бишкек,3,10,0,0,0,0,0,0,0,0,0,0,0,0,0,0,монолитный,2022,1272.7272727272727
агент,2,"Бишкек, Баха",элитка,74.0,1,евроремонт,0,0,обмен не предлагать,нет,0,0,пустая,ламинат,2.9796183723797784,0,нет,бронированная,нет,89000,7880060,42.8461,74.5621,Бишкек,9,9,0,0,0,0,0,0,0,0,0,0,0,0,0,0,монолитный,2022,1202.7027027027027
агент,1,"Бишкек, Джал 15 м-н, Ахунбаева/Тыналиева",элитка,43.0,1,евроремонт,0,0,обмен не предлагать,нет,0,0,пустая,ламинат,3.0,0,нет,бронированная,нет,57000,5046780,42.8451,74.5654,Бишкек,14,15,0,0,0,0,0,0,0,0,0,0,0,0,0,0,монолитный,2023,1325.5813953488373
агент,5,"Бишкек, Магистраль, просп. Ч. Айтматова 299/3",элитка,182.0,0,под самоотделку (псо),0,0,обмен не предлагать,нет,0,0,пустая,ламинат,3.4,0,нет,бронированная,нет,285000,25233900,42.825,74.5839,Бишкек,8,8,0,0,0,0,0,0,0,0,0,0,0,0,0,0,монолитный,2022,1565.934065934066
агент,3,"Бишкек, Военторг",элитка,135.0,0,евроремонт,0,0,обмен не предлагать,нет,0,0,пустая,ламинат,2.9796183723797784,0,нет,бронированная,нет,207000,18327780,42.8729,74.5963,Бишкек,3,12,0,0,0,0,0,0,0,0,0,0,0,0,0,0,кирпичный,2022,1533.3333333333333
агент,3,Лебединовка,105 серия,62.0,1,хорошее,0,0,обмен не предлагать,нет,0,0,пустая,ламинат,2.9796183723797784,0,нет,бронированная,нет,67500,5976450,42.8852,74.6615,Бишкек,5,5,0,0,0,0,0,0,0,0,0,0,0,0,0,0,панельный,2022,1088.7096774193549
агент,2,"Бишкек, Магистраль, Магистраль/Сухэ Батора",элитка,67.11,1,под самоотделку (псо),0,0,обмен не предлагать,нет,0,0,пустая,ламинат,3.0,0,нет,бронированная,нет,69800,6180092,42.8228,74.6152,Бишкек,14,16,0,0,0,0,0,0,0,0,0,0,0,0,0,0,монолитный,2022,1040.0834450901505
агент,3,"Бишкек, Магистраль, Байтик-Баатыра/А. Токомбаева",элитка,104.14,0,под самоотделку (псо),0,0,обмен не предлагать,нет,0,0,пустая,ламинат,3.0,0,нет,бронированная,нет,98933,8759528,42.8192,74.6031,Бишкек,13,14,0,0,0,0,0,0,0,0,0,0,0,0,0,0,монолитный,2022,950.0
агент,3,"Бишкек, Азия Молл, Ч. Айтматова (пр. Мира) 36",элитка,152.0,1,евроремонт,0,1,обмен не предлагать,нет,0,0,пустая,ламинат,3.0,0,раздельный,бронированная,рядом охраняемая стоянка,156000,13812240,42.8545,74.5884,Бишкек,9,10,0,0,0,0,0,0,0,0,0,0,1,0,1,0,монолитный,2018,1026.3157894736842
агент,2,"с. Кок-Джар, Алма-Атинская/Южная магистраль",106 серия,66.7,0,евроремонт,0,0,обмен не предлагать,нет,0,0,пустая,ламинат,2.8,0,нет,бронированная,нет,88000,7791520,42.8151,74.6478,Бишкек,5,9,0,0,0,0,0,0,0,0,0,0,0,0,0,0,панельный,2016,1319.3403298350825
агент,1,"Бишкек, Магистраль, Сухэ-Батора/Токомбаева",элитка,39.0,1,евроремонт,0,0,обмен не предлагать,нет,0,0,пустая,ламинат,3.0,0,нет,бронированная,нет,68500,6064990,42.8188,74.6162,Бишкек,3,8,0,0,0,0,0,0,0,0,0,0,0,0,0,0,монолитный,2021,1756.4102564102564
агент,3,"Бишкек, Бишкек-Парк, Киевская 148",элитка,100.0,1,евроремонт,0,0,обмен не предлагать,проводной,0,0,пустая,ламинат,3.0,1,раздельный,бронированная,нет,199000,17619460,42.8746,74.5902,Бишкек,8,25,0,0,0,0,0,0,0,0,0,0,1,0,0,0,монолитный,2016,1990.0
агент,4,"Бишкек, 12 м-н",элитка,123.0,1,евроремонт,0,1,обмен не предлагать,проводной,1,0,пустая,ламинат,3.0,1,раздельный,бронированная,нет,142000,12572680,42.8155,74.6382,Бишкек,11,11,0,0,0,0,0,0,0,0,0,0,0,0,0,0,монолитный,2022,1154.4715447154472
агент,1,"Бишкек, Магистраль, Куттубаева/Южная Магистраль",элитка,41.5,0,евроремонт,0,0,обмен не предлагать,нет,0,0,пустая,ламинат,3.0,0,нет,бронированная,нет,60300,5338962,42.8161,74.6228,Бишкек,8,12,0,0,0,0,0,0,0,0,0,0,0,0,0,0,монолитный,2022,1453.012048192771
агент,3,"Бишкек, Магистраль, Куттубаева/Южн. Магистраль",элитка,97.0,0,евроремонт,0,0,обмен не предлагать,нет,0,0,пустая,ламинат,3.0,0,нет,бронированная,нет,122000,10801880,42.8113,74.6221,Бишкек,7,10,0,0,0,0,0,0,0,0,0,0,0,0,0,0,монолитный,2023,1257.7319587628865
агент,2,"Бишкек, КНУ, Тимирязева/Жумабека",элитка,68.0,1,евроремонт,0,0,обмен не предлагать,нет,0,0,пустая,ламинат,3.0,0,нет,бронированная,нет,86200,7632148,42.884,74.581,Бишкек,15,16,0,0,0,0,0,0,0,0,0,0,0,0,0,0,монолитный,2022,1267.6470588235295
агент,2,"Бишкек, Верхний Джал м-н",элитка,80.0,0,евроремонт,0,0,обмен не предлагать,нет,0,0,пустая,ламинат,2.9796183723797784,0,нет,бронированная,нет,97000,8588380,42.835,74.5664,Бишкек,9,9,0,0,0,0,0,0,0,0,1,0,1,0,0,0,монолитный,2022,1212.5
агент,1,"Бишкек, Магистраль, Куттубаева/Южн. Магистраль",элитка,42.0,0,евроремонт,0,0,обмен не предлагать,нет,0,0,пустая,ламинат,3.0,0,нет,бронированная,нет,62000,5489480,42.8113,74.6221,Бишкек,8,10,0,0,0,0,0,0,0,0,0,0,0,0,0,0,монолитный,2023,1476.1904761904761
агент,3,"Бишкек, Магистраль, Байтик Баатыра/Южная Магистраль",элитка,138.0,0,под самоотделку (псо),0,0,обмен не предлагать,нет,0,0,пустая,ламинат,3.3,0,нет,бронированная,нет,172500,15273150,42.8224,74.611,Бишкек,12,14,0,0,0,0,0,0,0,0,0,0,0,0,0,0,монолитный,2022,1250.0
агент,5,"Бишкек, Церковь, Жибек Жолу/Керимбекова",элитка,182.0,1,евроремонт,0,0,обмен не предлагать,нет,1,1,полностью меблирована,паркет,3.0,0,раздельный,бронированная,паркинг,200000,17708000,42.8842,74.5951,Бишкек,7,7,1,1,1,0,1,0,0,0,1,0,1,0,0,0,монолитный,2022,1098.901098901099
собственник,2,"Бишкек, Кудайберген,  ул. П. Лумумбы 94/Садыгалиева",индивид. планировка,55.0,1,хорошее,0,1,рассмотрю варианты,проводной,1,1,полностью меблирована,паркет,2.7,1,совмещенный,бронированная,рядом охраняемая стоянка,54990,4868815,42.8796,74.5191,Бишкек,2,3,0,0,0,0,0,0,0,0,1,0,1,0,0,0,кирпичный,1986,999.8181818181819
агент,2,"Бишкек, Магистраль, Куттубаева/Южн. Магистраль",элитка,53.0,1,евроремонт,0,0,обмен не предлагать,нет,0,0,пустая,ламинат,3.0,0,нет,бронированная,нет,69500,6153530,42.8113,74.6221,Бишкек,2,10,0,0,0,0,0,0,0,0,0,0,0,0,0,0,монолитный,2023,1311.3207547169811
агент,4,"Бишкек, Магистраль, Сухэ-Батора/Токомбаева",элитка,147.0,1,под самоотделку (псо),0,0,обмен не предлагать,нет,0,0,пустая,ламинат,3.0,0,нет,бронированная,нет,176400,15618456,42.8195,74.6155,Бишкек,6,12,0,0,0,0,0,0,0,0,0,0,0,0,0,0,монолитный,2019,1200.0
агент,2,"Бишкек, Джальская больница, Ахунбаева - Тыналиева",элитка,82.45,0,евроремонт,0,0,обмен не предлагать,нет,0,0,пустая,ламинат,2.9796183723797784,0,нет,бронированная,нет,89000,7880060,42.8454,74.5698,Бишкек,9,12,0,0,0,0,0,0,0,0,0,0,0,0,0,0,монолитный,2023,1079.4420861127956
агент,2,"Бишкек, Магистраль, Куттубаева/Южн. Магистраль",элитка,72.0,1,евроремонт,0,0,обмен не предлагать,нет,0,0,пустая,ламинат,3.0,0,нет,бронированная,нет,100000,8854000,42.8113,74.6221,Бишкек,6,10,0,0,0,0,0,0,0,0,0,0,0,0,0,0,монолитный,2023,1388.888888888889
агент,3,"Бишкек, Магистраль, Куттубаева/Южн. Магистраль",элитка,97.0,1,евроремонт,0,0,обмен не предлагать,нет,0,0,пустая,ламинат,3.0,0,нет,бронированная,нет,122000,10801880,42.8113,74.6221,Бишкек,7,10,0,0,0,0,0,0,0,0,0,0,0,0,0,0,монолитный,2023,1257.7319587628865
агент,4,"Бишкек, Магистраль, просп. Айтматова / ул. Масалиева",элитка,180.0,0,под самоотделку (псо),0,0,обмен не предлагать,нет,0,0,пустая,ламинат,3.0,0,нет,бронированная,нет,180000,15937200,42.8191,74.5857,Бишкек,12,14,0,0,0,0,0,0,0,0,0,0,0,0,0,0,монолитный,2021,1000.0
агент,4,"Бишкек, Старый аэропорт, Бакаева 132",элитка,113.0,1,евроремонт,0,0,обмен не предлагать,нет,0,0,пустая,ламинат,3.0,0,нет,бронированная,нет,137000,12129980,42.8419,74.5772,Бишкек,4,9,0,0,0,0,0,0,0,0,1,0,1,0,0,0,монолитный,2022,1212.3893805309735
агент,4,"Бишкек, Магистраль, Байтик-Баатыра/А. Токомбаева",элитка,154.0,0,под самоотделку (псо),0,0,обмен не предлагать,нет,0,0,пустая,ламинат,3.0,0,нет,бронированная,нет,135520,11998941,42.8192,74.6031,Бишкек,14,14,0,0,0,0,0,0,0,0,0,0,0,0,0,0,монолитный,2022,880.0
агент,3,"Бишкек, 6 м-н, Сухэ-Батора-Юнусалиева",элитка,122.0,0,евроремонт,0,0,обмен не предлагать,нет,0,0,пустая,ламинат,2.9796183723797784,0,нет,бронированная,нет,175000,15494500,42.8262,74.6235,Бишкек,11,12,0,0,0,0,0,0,0,0,0,0,0,0,0,0,монолитный,2022,1434.4262295081967
агент,4,"Бишкек, Молодая Гвардия, Рыскулова 95а",элитка,110.0,1,евроремонт,0,0,обмен не предлагать,нет,1,0,частично меблирована,ламинат,3.0,0,раздельный,бронированная,паркинг,155000,13723700,42.88,74.5746,Бишкек,8,12,1,1,1,1,1,0,0,0,1,0,1,0,0,0,монолитный,2022,1409.090909090909
агент,3,"Бишкек, Магистраль, Чынгыза Айтматова/Токомбаева",элитка,150.0,1,евроремонт,0,0,обмен не предлагать,нет,0,0,полностью меблирована,ламинат,3.0,0,нет,бронированная,нет,186000,16468440,42.8301,74.5838,Бишкек,6,10,0,0,0,0,0,0,0,0,1,0,1,0,0,0,монолитный,2014,1240.0
агент,4,"Бишкек, Магистраль, пр. Ч. Айтматова 82/2",элитка,157.0,0,под самоотделку (псо),0,0,обмен не предлагать,нет,0,0,пустая,ламинат,3.2,0,нет,бронированная,нет,164850,14595819,42.8277,74.586,Бишкек,12,14,0,0,0,0,0,0,0,0,0,0,0,0,0,0,монолитный,2021,1050.0
агент,1,"Бишкек, Магистраль, Куттубаева/Южная Магистраль",элитка,42.0,0,евроремонт,0,0,обмен не предлагать,нет,0,0,пустая,ламинат,3.0,0,нет,бронированная,нет,56500,5002510,42.8161,74.6228,Бишкек,8,12,0,0,0,0,0,0,0,0,0,0,0,0,0,0,монолитный,2022,1345.2380952380952
агент,2,"Бишкек, Комфорт",105 серия,60.0,1,евроремонт,0,0,обмен не предлагать,нет,0,0,полностью меблирована,ламинат,2.9796183723797784,0,нет,бронированная,нет,80800,7154032,42.8693,74.6164,Бишкек,2,9,0,0,0,0,0,0,0,0,1,0,1,0,0,0,панельный,2022,1346.6666666666667
агент,2,"Бишкек, ЖД вокзал, Раззакова/Туголбай ата",элитка,90.0,1,евроремонт,0,0,обмен не предлагать,нет,0,0,полностью меблирована,ламинат,3.0,0,нет,бронированная,паркинг,120000,10624800,42.8644,74.6036,Бишкек,10,10,0,0,0,0,0,0,0,0,1,0,1,0,0,0,монолитный,2016,1333.3333333333333
агент,3,"Бишкек, Магистраль, ДУЙШЕЕВА/МОЛДОБАСАНОВА (НАПРОТИВ ШК.ГАЗПРОМ)",элитка,131.0,1,под самоотделку (псо),0,0,обмен не предлагать,нет,0,0,пустая,ламинат,2.9796183723797784,0,нет,бронированная,нет,131000,11598740,42.8166,74.6113,Бишкек,11,14,0,0,0,0,0,0,0,0,0,0,0,0,0,0,монолитный,2026,1000.0
